<?xml version="1.0"?>
<FSData version="9.0">
	<!--SceneryObject name: Automatic_Fence-->
	<SceneryObject displayName="Automatic_Fence (copy)" lat="59.97290201052976" lon="11.03105193982804" alt="0.00000000000000" pitch="0.001175" bank="-0.001168" heading="-55.031087" imageComplexity="NORMAL" altitudeIsAgl="TRUE" snapToGround="TRUE" snapToNormal="FALSE">
		<LibraryObject name="{8BEE7FF0-6CE8-4BD5-B053-20263F075E20}" scale="1.000000"/>
	</SceneryObject>
	<!--SceneryObject name: Automatic_Fence-->
	<SceneryObject lat="59.97297722433732" lon="11.03085447530385" alt="0.00000000000000" pitch="0.000519" bank="-0.000512" heading="124.968857" imageComplexity="NORMAL" altitudeIsAgl="TRUE" snapToGround="TRUE" snapToNormal="FALSE">
		<LibraryObject name="{8BEE7FF0-6CE8-4BD5-B053-20263F075E20}" scale="1.000000"/>
	</SceneryObject>
	<!--SceneryObject name: Fence_Concrete04_Little-->
	<SceneryObject displayName="Fence_Concrete04_Little (copy) (copy) (copy) (copy) (copy) (copy) (copy) (copy) (copy) (copy)" lat="59.96821252226643" lon="11.04713956055834" alt="0.00000000000000" pitch="0.001407" bank="-0.001407" heading="148.990058" imageComplexity="VERY_SPARSE" altitudeIsAgl="TRUE" snapToGround="TRUE" snapToNormal="FALSE">
		<LibraryObject name="{8307A152-AB86-47E0-9F08-0CFA68C762BB}" scale="1.120000"/>
	</SceneryObject>
	<!--SceneryObject name: Fence_Concrete04_Little-->
	<SceneryObject displayName="Fence_Concrete04_Little (copy) (copy) (copy) (copy) (copy) (copy) (copy) (copy) (copy)" lat="59.96824343781203" lon="11.04709728525435" alt="0.00000000000000" pitch="0.001407" bank="-0.001407" heading="148.990058" imageComplexity="VERY_SPARSE" altitudeIsAgl="TRUE" snapToGround="TRUE" snapToNormal="FALSE">
		<LibraryObject name="{8307A152-AB86-47E0-9F08-0CFA68C762BB}" scale="1.120000"/>
	</SceneryObject>
	<!--SceneryObject name: Fence_Concrete04_Little-->
	<SceneryObject displayName="Fence_Concrete04_Little (copy) (copy) (copy) (copy) (copy) (copy) (copy) (copy)" lat="59.96827357461419" lon="11.04705221824432" alt="0.00000000000000" pitch="0.001407" bank="-0.001407" heading="148.990058" imageComplexity="VERY_SPARSE" altitudeIsAgl="TRUE" snapToGround="TRUE" snapToNormal="FALSE">
		<LibraryObject name="{8307A152-AB86-47E0-9F08-0CFA68C762BB}" scale="1.120000"/>
	</SceneryObject>
	<!--SceneryObject name: Fence_Concrete04_Little-->
	<SceneryObject displayName="Fence_Concrete04_Little (copy) (copy) (copy) (copy) (copy) (copy) (copy)" lat="59.96830143583830" lon="11.04701481596847" alt="0.00000000000000" pitch="0.001407" bank="-0.001407" heading="148.990058" imageComplexity="VERY_SPARSE" altitudeIsAgl="TRUE" snapToGround="TRUE" snapToNormal="FALSE">
		<LibraryObject name="{8307A152-AB86-47E0-9F08-0CFA68C762BB}" scale="1.120000"/>
	</SceneryObject>
	<!--SceneryObject name: Fence_Concrete04_Little-->
	<SceneryObject displayName="Fence_Concrete04_Little (copy) (copy) (copy) (copy) (copy) (copy)" lat="59.96835642881075" lon="11.04710864111052" alt="0.00000000000000" pitch="0.001339" bank="-0.001339" heading="-121.929614" imageComplexity="VERY_SPARSE" altitudeIsAgl="TRUE" snapToGround="TRUE" snapToNormal="FALSE">
		<LibraryObject name="{8307A152-AB86-47E0-9F08-0CFA68C762BB}" scale="1.120000"/>
	</SceneryObject>
	<!--SceneryObject name: Fence_Concrete04_Little-->
	<SceneryObject displayName="Fence_Concrete04_Little (copy) (copy) (copy) (copy) (copy) (copy) (copy)" lat="59.96837354470130" lon="11.04717178568535" alt="0.00000000000000" pitch="0.001339" bank="-0.001339" heading="-121.929614" imageComplexity="VERY_SPARSE" altitudeIsAgl="TRUE" snapToGround="TRUE" snapToNormal="FALSE">
		<LibraryObject name="{8307A152-AB86-47E0-9F08-0CFA68C762BB}" scale="1.120000"/>
	</SceneryObject>
	<!--SceneryObject name: Fence_Concrete04_Little-->
	<SceneryObject displayName="Fence_Concrete04_Little (copy) (copy) (copy) (copy) (copy) (copy) (copy) (copy)" lat="59.96839377044803" lon="11.04723861782618" alt="0.00000000000000" pitch="0.001339" bank="-0.001339" heading="-121.929614" imageComplexity="VERY_SPARSE" altitudeIsAgl="TRUE" snapToGround="TRUE" snapToNormal="FALSE">
		<LibraryObject name="{8307A152-AB86-47E0-9F08-0CFA68C762BB}" scale="1.120000"/>
	</SceneryObject>
	<!--SceneryObject name: Fence_Concrete04_Little-->
	<SceneryObject displayName="Fence_Concrete04_Little (copy) (copy) (copy) (copy) (copy) (copy) (copy) (copy) (copy) (copy) (copy) (copy) (copy) (copy)" lat="59.96840981368510" lon="11.04763868759683" alt="0.00000000000000" pitch="0.001544" bank="-0.002432" heading="-31.531992" imageComplexity="VERY_SPARSE" altitudeIsAgl="TRUE" snapToGround="TRUE" snapToNormal="FALSE">
		<LibraryObject name="{8307A152-AB86-47E0-9F08-0CFA68C762BB}" scale="1.120000"/>
	</SceneryObject>
	<!--SceneryObject name: Fence_Concrete04_Little-->
	<SceneryObject displayName="Fence_Concrete04_Little (copy) (copy) (copy) (copy) (copy) (copy) (copy) (copy) (copy)" lat="59.96841231239715" lon="11.04730567811600" alt="0.00000000000000" pitch="0.001339" bank="-0.001339" heading="-121.929614" imageComplexity="VERY_SPARSE" altitudeIsAgl="TRUE" snapToGround="TRUE" snapToNormal="FALSE">
		<LibraryObject name="{8307A152-AB86-47E0-9F08-0CFA68C762BB}" scale="1.120000"/>
	</SceneryObject>
	<!--SceneryObject name: Fence_Concrete04_Little-->
	<SceneryObject displayName="Fence_Concrete04_Little (copy) (copy) (copy) (copy) (copy) (copy) (copy) (copy) (copy) (copy)" lat="59.96843200812319" lon="11.04737099093222" alt="0.00000000000000" pitch="0.001339" bank="-0.001339" heading="-121.929614" imageComplexity="VERY_SPARSE" altitudeIsAgl="TRUE" snapToGround="TRUE" snapToNormal="FALSE">
		<LibraryObject name="{8307A152-AB86-47E0-9F08-0CFA68C762BB}" scale="1.120000"/>
	</SceneryObject>
	<!--SceneryObject name: Fence_Concrete04_Little-->
	<SceneryObject displayName="Fence_Concrete04_Little (copy) (copy) (copy) (copy) (copy) (copy) (copy) (copy) (copy) (copy) (copy) (copy) (copy)" lat="59.96844502732286" lon="11.04759846179952" alt="0.00000000000000" pitch="0.001544" bank="-0.002432" heading="-31.531992" imageComplexity="VERY_SPARSE" altitudeIsAgl="TRUE" snapToGround="TRUE" snapToNormal="FALSE">
		<LibraryObject name="{8307A152-AB86-47E0-9F08-0CFA68C762BB}" scale="1.120000"/>
	</SceneryObject>
	<!--SceneryObject name: Fence_Concrete04_Little-->
	<SceneryObject displayName="Fence_Concrete04_Little (copy) (copy) (copy) (copy) (copy) (copy) (copy) (copy) (copy) (copy) (copy)" lat="59.96845273521289" lon="11.04743928031991" alt="0.00000000000000" pitch="0.001339" bank="-0.001339" heading="-121.929614" imageComplexity="VERY_SPARSE" altitudeIsAgl="TRUE" snapToGround="TRUE" snapToNormal="FALSE">
		<LibraryObject name="{8307A152-AB86-47E0-9F08-0CFA68C762BB}" scale="1.120000"/>
	</SceneryObject>
	<!--SceneryObject name: Fence_Concrete04_Little-->
	<SceneryObject displayName="Fence_Concrete04_Little (copy) (copy) (copy) (copy) (copy) (copy) (copy) (copy) (copy) (copy) (copy) (copy)" lat="59.96847729030770" lon="11.04749952414109" alt="0.00000000000000" pitch="0.001339" bank="-0.001339" heading="-121.929614" imageComplexity="VERY_SPARSE" altitudeIsAgl="TRUE" snapToGround="TRUE" snapToNormal="FALSE">
		<LibraryObject name="{8307A152-AB86-47E0-9F08-0CFA68C762BB}" scale="1.120000"/>
	</SceneryObject>
	<!--SceneryObject name: Fence_Concrete04_Little-->
	<SceneryObject displayName="Fence_Concrete04_Little (copy) (copy) (copy) (copy) (copy) (copy) (copy) (copy) (copy) (copy) (copy) (copy)" lat="59.96847835961064" lon="11.04755283088442" alt="0.00000000000000" pitch="0.001544" bank="-0.002432" heading="-31.531992" imageComplexity="VERY_SPARSE" altitudeIsAgl="TRUE" snapToGround="TRUE" snapToNormal="FALSE">
		<LibraryObject name="{8307A152-AB86-47E0-9F08-0CFA68C762BB}" scale="1.120000"/>
	</SceneryObject>
	<!--SceneryObject name: Fence_Grilling04_B_PortalSmall-->
	<SceneryObject lat="59.96684143336963" lon="11.05162145800118" alt="0.00725439327925" pitch="0.000000" bank="0.000000" heading="0.000000" imageComplexity="NORMAL" altitudeIsAgl="TRUE" snapToGround="FALSE" snapToNormal="FALSE">
		<LibraryObject name="{A9CDB60E-42A0-45BE-A0B6-032CE4C286FC}" scale="1.000000"/>
	</SceneryObject>
	<!--SceneryObject name: Fence_Grilling04_Corner01-->
	<SceneryObject lat="59.97390315130442" lon="11.03075988591811" alt="0.00000000000000" pitch="0.000485" bank="-0.000485" heading="19.055224" imageComplexity="VERY_SPARSE" altitudeIsAgl="TRUE" snapToGround="TRUE" snapToNormal="FALSE">
		<LibraryObject name="{D051E245-9207-499F-8665-3C5324DEAA74}" scale="1.000000"/>
	</SceneryObject>
	<!--SceneryObject name: Fence_Grilling04_High-->
	<SceneryObject lat="59.97329725719597" lon="11.03031937352001" alt="0.00000000000000" pitch="0.001011" bank="-0.001011" heading="20.003158" imageComplexity="VERY_SPARSE" altitudeIsAgl="TRUE" snapToGround="TRUE" snapToNormal="FALSE">
		<LibraryObject name="{4BD2957E-FEB7-42C5-A7C4-0F39F9FBC9F3}" scale="1.000000"/>
	</SceneryObject>
	<!--SceneryObject name: Fence_Grilling04_High-->
	<SceneryObject displayName="Fence_Grilling04_High (copy)" lat="59.97353004998315" lon="11.03048868854481" alt="0.00000000000000" pitch="0.001011" bank="-0.001011" heading="20.003158" imageComplexity="VERY_SPARSE" altitudeIsAgl="TRUE" snapToGround="TRUE" snapToNormal="FALSE">
		<LibraryObject name="{4BD2957E-FEB7-42C5-A7C4-0F39F9FBC9F3}" scale="1.000000"/>
	</SceneryObject>
	<!--SceneryObject name: Fence_Grilling04_High-->
	<SceneryObject displayName="Fence_Grilling04_High (copy) (copy)" lat="59.97376309977677" lon="11.03065750396994" alt="0.00000000000000" pitch="0.001011" bank="-0.001011" heading="20.003158" imageComplexity="VERY_SPARSE" altitudeIsAgl="TRUE" snapToGround="TRUE" snapToNormal="FALSE">
		<LibraryObject name="{4BD2957E-FEB7-42C5-A7C4-0F39F9FBC9F3}" scale="1.000000"/>
	</SceneryObject>
	<!--SceneryObject name: Fence_Grilling04_Little-->
	<SceneryObject lat="59.97299481562446" lon="11.03080686746229" alt="0.00000000000000" pitch="0.000635" bank="-0.000635" heading="-57.112754" imageComplexity="NORMAL" altitudeIsAgl="TRUE" snapToGround="TRUE" snapToNormal="FALSE">
		<LibraryObject name="{A6CA169F-8FD3-4E73-B08A-2B5C7023844A}" scale="1.000000"/>
	</SceneryObject>
	<!--SceneryObject name: Fence_Grilling04_Little-->
	<SceneryObject displayName="aaaaa" lat="59.97302201094405" lon="11.03072470082458" alt="0.00000000000000" pitch="0.000635" bank="-0.000635" heading="-57.112754" imageComplexity="NORMAL" altitudeIsAgl="TRUE" snapToGround="TRUE" snapToNormal="FALSE">
		<LibraryObject name="{A6CA169F-8FD3-4E73-B08A-2B5C7023844A}" scale="1.000000"/>
	</SceneryObject>
	<!--SceneryObject name: Fence_Grilling04_Little-->
	<SceneryObject lat="59.97304926259523" lon="11.03064189690011" alt="0.00000000000000" pitch="0.000635" bank="-0.000635" heading="-57.112754" imageComplexity="NORMAL" altitudeIsAgl="TRUE" snapToGround="TRUE" snapToNormal="FALSE">
		<LibraryObject name="{A6CA169F-8FD3-4E73-B08A-2B5C7023844A}" scale="1.000000"/>
	</SceneryObject>
	<!--SceneryObject name: Fence_Grilling04_Little-->
	<SceneryObject displayName="Fence_Grilling04_Little (copy)" lat="59.97311423196550" lon="11.03044269003496" alt="0.00000000000000" pitch="0.000635" bank="-0.000635" heading="-57.112754" imageComplexity="NORMAL" altitudeIsAgl="TRUE" snapToGround="TRUE" snapToNormal="FALSE">
		<LibraryObject name="{A6CA169F-8FD3-4E73-B08A-2B5C7023844A}" scale="1.000000"/>
	</SceneryObject>
	<!--SceneryObject name: Fence_Grilling04_Little-->
	<SceneryObject displayName="Fence_Grilling04_Little (copy) (copy)" lat="59.97314145691693" lon="11.03035927211183" alt="0.00000000000000" pitch="0.000635" bank="-0.000635" heading="-57.112754" imageComplexity="NORMAL" altitudeIsAgl="TRUE" snapToGround="TRUE" snapToNormal="FALSE">
		<LibraryObject name="{A6CA169F-8FD3-4E73-B08A-2B5C7023844A}" scale="1.000000"/>
	</SceneryObject>
	<!--SceneryObject name: Fence_Grilling04_Little-->
	<SceneryObject displayName="Fence_Grilling04_Little (copy) (copy) (copy)" lat="59.97316783591271" lon="11.03027478469083" alt="0.00000000000000" pitch="0.000635" bank="-0.000635" heading="-57.112754" imageComplexity="NORMAL" altitudeIsAgl="TRUE" snapToGround="TRUE" snapToNormal="FALSE">
		<LibraryObject name="{A6CA169F-8FD3-4E73-B08A-2B5C7023844A}" scale="1.000000"/>
	</SceneryObject>
	<!--SceneryObject name: Fence_Grilling04_PortalBig-->
	<SceneryObject lat="59.97307335074738" lon="11.03056773402209" alt="0.00000000000000" pitch="0.000738" bank="-0.000697" heading="-57.112741" imageComplexity="VERY_SPARSE" altitudeIsAgl="TRUE" snapToGround="TRUE" snapToNormal="FALSE">
		<LibraryObject name="{620EED37-6163-46CD-918C-061825D9CB3E}" scale="1.000000"/>
	</SceneryObject>
	<Airport state="NO STATE" city="Kjeller" name="Kjeller AB" ident="ENKJ" lat="59.96944438666110" lon="11.03888869285580" alt="106.52700000000000" magvar="0.000000" trafficScalar="0.700000" airportTestRadius="5000.00000000000000" applyFlatten="FALSE" isOnTIN="FALSE">
		<TaxiwayPoint groupIndex="107" index="13" type="HOLD_SHORT" orientation="FORWARD" lat="59.96746847069933" lon="11.04792564281905"/>
		<TaxiwayPoint groupIndex="179" index="36" type="HOLD_SHORT" orientation="FORWARD" lat="59.97100315764722" lon="11.03845247891848"/>
		<TaxiwayPoint groupIndex="199" index="6" type="HOLD_SHORT_NO_DRAW" orientation="FORWARD" lat="59.97068323194980" lon="11.03802055120470"/>
		<TaxiwayPoint groupIndex="197" index="2" type="HOLD_SHORT_NO_DRAW" orientation="FORWARD" lat="59.97181747108700" lon="11.02951124310490"/>
		<TaxiwayPoint groupIndex="198" index="3" type="HOLD_SHORT_NO_DRAW" orientation="FORWARD" lat="59.97295271605250" lon="11.03096365928650"/>
		<TaxiwayPoint groupIndex="190" index="0" type="NORMAL" orientation="FORWARD" lat="59.96587186515840" lon="11.05044836045810"/>
		<TaxiwayPoint displayName="Link runway A East" groupIndex="191" index="9" type="NORMAL" orientation="FORWARD" lat="59.96710431218057" lon="11.04662276040411"/>
		<TaxiwayPoint groupIndex="106" index="14" type="NORMAL" orientation="FORWARD" lat="59.96720561714085" lon="11.04678198068723"/>
		<TaxiwayPoint displayName="Link runway A West" groupIndex="192" index="8" type="NORMAL" orientation="FORWARD" lat="59.96722159235985" lon="11.04625557740315"/>
		<TaxiwayPoint groupIndex="105" index="12" type="NORMAL" orientation="FORWARD" lat="59.96760063612449" lon="11.04844334723085"/>
		<TaxiwayPoint displayName="Link runway B East" groupIndex="194" index="21" type="NORMAL" orientation="FORWARD" lat="59.96761815310256" lon="11.04503834022323"/>
		<TaxiwayPoint displayName="Taxi B link" groupIndex="93" index="17" type="NORMAL" orientation="FORWARD" lat="59.96767552696674" lon="11.04512239934702"/>
		<TaxiwayPoint displayName="Link runway B West" groupIndex="200" index="20" type="NORMAL" orientation="FORWARD" lat="59.96774066529229" lon="11.04465072210312"/>
		<TaxiwayPoint groupIndex="108" index="11" type="NORMAL" orientation="FORWARD" lat="59.96775776362561" lon="11.04895126908227"/>
		<TaxiwayPoint groupIndex="94" index="22" type="NORMAL" orientation="FORWARD" lat="59.96778209328597" lon="11.04531546889596"/>
		<TaxiwayPoint groupIndex="109" index="5" type="NORMAL" orientation="FORWARD" lat="59.96784778153310" lon="11.04924488537524"/>
		<TaxiwayPoint groupIndex="95" index="15" type="NORMAL" orientation="FORWARD" lat="59.96787924288102" lon="11.04550763138533"/>
		<TaxiwayPoint groupIndex="97" index="19" type="NORMAL" orientation="FORWARD" lat="59.96796275427384" lon="11.04569425122384"/>
		<TaxiwayPoint groupIndex="110" index="10" type="NORMAL" orientation="FORWARD" lat="59.96805720536189" lon="11.04988536038078"/>
		<TaxiwayPoint groupIndex="98" index="4" type="NORMAL" orientation="FORWARD" lat="59.96828184513664" lon="11.04658027672263"/>
		<TaxiwayPoint groupIndex="92" index="16" type="NORMAL" orientation="FORWARD" lat="59.96866125404714" lon="11.04756900306726"/>
		<TaxiwayPoint groupIndex="193" index="7" type="NORMAL" orientation="FORWARD" lat="59.96910438186710" lon="11.04041684281950"/>
		<TaxiwayPoint groupIndex="195" index="37" type="NORMAL" orientation="FORWARD" lat="59.97011236753838" lon="11.03730565439247"/>
		<TaxiwayPoint groupIndex="196" index="1" type="NORMAL" orientation="FORWARD" lat="59.97233689857580" lon="11.03038532518090"/>
		<TaxiwayParking groupIndex="133" index="26" type="FUEL" lat="59.96821806156401" lon="11.04759212924399" heading="233.405991" radius="15.000000" name="NONE" number="11" suffix="NONE" pushBack="NONE" numberMarking="FALSE" numberBiasX="0.000000" numberBiasZ="0.000000" numberHeading="0.000000"/>
		<TaxiwayParking displayName="Parking RAMP_GA_SMALL (PARKING-3-NONE) (copy) (copy) (copy) (copy) (/" groupIndex="62" index="34" type="RAMP_GA_SMALL" lat="59.96937273896092" lon="11.04875234096700" heading="234.210510" radius="5.000000" name="PARKING" number="10" suffix="NONE" pushBack="NONE" numberMarking="FALSE" numberBiasX="0.000000" numberBiasZ="0.000000" numberHeading="0.000000"/>
		<TaxiwayParking groupIndex="67" index="27" type="RAMP_GA_SMALL" lat="59.96771303584973" lon="11.04940966957338" heading="328.846893" radius="5.000000" name="PARKING" number="3" suffix="NONE" pushBack="NONE" numberMarking="FALSE" numberBiasX="0.000000" numberBiasZ="0.000000" numberHeading="0.000000"/>
		<TaxiwayParking displayName="Parking RAMP_GA_SMALL (PARKING-3-NONE) (copy)" groupIndex="66" index="28" type="RAMP_GA_SMALL" lat="59.96762160009292" lon="11.04913530809478" heading="328.846893" radius="5.000000" name="PARKING" number="4" suffix="NONE" pushBack="NONE" numberMarking="FALSE" numberBiasX="0.000000" numberBiasZ="0.000000" numberHeading="0.000000"/>
		<TaxiwayParking displayName="Parking RAMP_GA_SMALL (PARKING-3-NONE) (copy) (copy)" groupIndex="58" index="29" type="RAMP_GA_SMALL" lat="59.96752745901833" lon="11.04884354836822" heading="328.846893" radius="5.000000" name="PARKING" number="5" suffix="NONE" pushBack="NONE" numberMarking="FALSE" numberBiasX="0.000000" numberBiasZ="0.000000" numberHeading="0.000000"/>
		<TaxiwayParking displayName="Parking RAMP_GA_SMALL (PARKING-3-NONE) (copy) (copy) (copy)" groupIndex="65" index="30" type="RAMP_GA_SMALL" lat="59.96822988598510" lon="11.05058845792266" heading="234.210510" radius="5.000000" name="PARKING" number="6" suffix="NONE" pushBack="NONE" numberMarking="FALSE" numberBiasX="0.000000" numberBiasZ="0.000000" numberHeading="0.000000"/>
		<TaxiwayParking displayName="Parking RAMP_GA_SMALL (PARKING-3-NONE) (copy) (copy) (copy) (copy)" groupIndex="64" index="31" type="RAMP_GA_SMALL" lat="59.96810520731881" lon="11.05075965505627" heading="234.210510" radius="5.000000" name="PARKING" number="7" suffix="NONE" pushBack="NONE" numberMarking="FALSE" numberBiasX="0.000000" numberBiasZ="0.000000" numberHeading="0.000000"/>
		<TaxiwayParking displayName="Parking RAMP_GA_SMALL (PARKING-3-NONE) (copy) (copy) (copy) (copy) (." groupIndex="61" index="32" type="RAMP_GA_SMALL" lat="59.96876430672428" lon="11.04985804084893" heading="234.210510" radius="5.000000" name="PARKING" number="8" suffix="NONE" pushBack="NONE" numberMarking="FALSE" numberBiasX="0.000000" numberBiasZ="0.000000" numberHeading="0.000000"/>
		<TaxiwayParking displayName="Parking RAMP_GA_SMALL (PARKING-3-NONE) (copy) (copy) (copy) (copy) (0" groupIndex="63" index="33" type="RAMP_GA_SMALL" lat="59.96898431136842" lon="11.04935824381780" heading="234.210510" radius="5.000000" name="PARKING" number="9" suffix="NONE" pushBack="NONE" numberMarking="FALSE" numberBiasX="0.000000" numberBiasZ="0.000000" numberHeading="0.000000"/>
		<TaxiwayParking displayName="Parking RAMP_GA_SMALL (PARKING-3-NONE) (copy) (copy) (copy)" groupIndex="59" index="18" type="RAMP_GA_SMALL" lat="59.97136685590078" lon="11.02843473575765" heading="97.902145" radius="5.000000" name="S_PARKING" number="31" suffix="NONE" pushBack="NONE" numberMarking="FALSE" numberBiasX="0.000000" numberBiasZ="0.000000" numberHeading="0.000000"/>
		<TaxiwayParking displayName="Parking RAMP_GA_SMALL (PARKING-3-NONE) (copy) (copy) (copy) (copy)" groupIndex="60" index="38" type="RAMP_GA_SMALL" lat="59.97121420161422" lon="11.02838566190380" heading="97.902145" radius="5.000000" name="S_PARKING" number="32" suffix="NONE" pushBack="NONE" numberMarking="FALSE" numberBiasX="0.000000" numberBiasZ="0.000000" numberHeading="0.000000"/>
		<TaxiwayParking groupIndex="180" index="35" type="RAMP_MIL_COMBAT" lat="59.97099943070967" lon="11.03880024565027" heading="180.000000" radius="15.000000" name="NONE" number="21" suffix="NONE" pushBack="NONE" numberMarking="FALSE" numberBiasX="0.000000" numberBiasZ="0.000000" numberHeading="0.000000"/>
		<TaxiName index="0" name=""/>
		<TaxiName index="1" name="A"/>
		<TaxiName index="2" name="B"/>
		<TaxiName index="3" name="C"/>
		<TaxiwayPath groupIndex="137" type="RUNWAY" surface="{B008C78F-E00D-4776-9AFB-3842E7C0D02F}" centerLine="TRUE" start="37" end="7" width="15.240000" weightLimit="0" number="12" designator="NONE" drawSurface="FALSE" drawDetail="FALSE" groundMerging="FALSE" excludeVegetationAround="FALSE" excludeVegetationInside="FALSE">
			<Coloration red="128" green="128" blue="128" alpha="255" override="TRUE"/>
		</TaxiwayPath>
		<TaxiwayPath groupIndex="139" type="RUNWAY" surface="{B008C78F-E00D-4776-9AFB-3842E7C0D02F}" centerLine="TRUE" start="21" end="8" width="15.240000" weightLimit="0" number="12" designator="NONE" drawSurface="FALSE" drawDetail="FALSE" groundMerging="FALSE" excludeVegetationAround="FALSE" excludeVegetationInside="FALSE">
			<Coloration red="128" green="128" blue="128" alpha="255" override="TRUE"/>
		</TaxiwayPath>
		<TaxiwayPath groupIndex="140" type="RUNWAY" surface="{B008C78F-E00D-4776-9AFB-3842E7C0D02F}" centerLine="TRUE" start="8" end="9" width="15.240000" weightLimit="0" number="12" designator="NONE" drawSurface="FALSE" drawDetail="FALSE" groundMerging="FALSE" excludeVegetationAround="FALSE" excludeVegetationInside="FALSE">
			<Coloration red="128" green="128" blue="128" alpha="255" override="TRUE"/>
		</TaxiwayPath>
		<TaxiwayPath groupIndex="141" type="RUNWAY" surface="{B008C78F-E00D-4776-9AFB-3842E7C0D02F}" centerLine="TRUE" start="7" end="20" width="15.240000" weightLimit="0" number="12" designator="NONE" drawSurface="FALSE" drawDetail="FALSE" groundMerging="FALSE" excludeVegetationAround="FALSE" excludeVegetationInside="FALSE">
			<Coloration red="128" green="128" blue="128" alpha="255" override="TRUE"/>
		</TaxiwayPath>
		<TaxiwayPath groupIndex="143" type="RUNWAY" surface="{B008C78F-E00D-4776-9AFB-3842E7C0D02F}" centerLine="TRUE" start="20" end="21" width="15.240000" weightLimit="0" number="12" designator="NONE" drawSurface="FALSE" drawDetail="FALSE" groundMerging="FALSE" excludeVegetationAround="FALSE" excludeVegetationInside="FALSE">
			<Coloration red="128" green="128" blue="128" alpha="255" override="TRUE"/>
		</TaxiwayPath>
		<TaxiwayPath groupIndex="138" type="RUNWAY" surface="{B008C78F-E00D-4776-9AFB-3842E7C0D02F}" centerLine="TRUE" start="1" end="37" width="15.240000" weightLimit="0" number="12" designator="NONE" drawSurface="FALSE" drawDetail="FALSE" groundMerging="FALSE" excludeVegetationAround="FALSE" excludeVegetationInside="FALSE">
			<Coloration red="128" green="128" blue="128" alpha="255" override="TRUE"/>
		</TaxiwayPath>
		<TaxiwayPath groupIndex="104" type="TAXI" surface="{85D02B2B-08A1-452E-AB07-6D5AE7F52884}" centerLine="FALSE" start="10" end="5" width="10.000000" weightLimit="0" name="1" drawSurface="FALSE" drawDetail="TRUE" groundMerging="TRUE" excludeVegetationAround="TRUE" excludeVegetationInside="TRUE"/>
		<TaxiwayPath groupIndex="99" type="TAXI" surface="{85D02B2B-08A1-452E-AB07-6D5AE7F52884}" centerLine="FALSE" start="14" end="9" width="10.000000" weightLimit="0" name="1" drawSurface="FALSE" drawDetail="TRUE" groundMerging="TRUE" excludeVegetationAround="TRUE" excludeVegetationInside="TRUE"/>
		<TaxiwayPath groupIndex="103" type="TAXI" surface="{85D02B2B-08A1-452E-AB07-6D5AE7F52884}" centerLine="FALSE" start="5" end="11" width="10.000000" weightLimit="0" name="1" drawSurface="FALSE" drawDetail="TRUE" groundMerging="TRUE" excludeVegetationAround="TRUE" excludeVegetationInside="TRUE"/>
		<TaxiwayPath groupIndex="102" type="TAXI" surface="{85D02B2B-08A1-452E-AB07-6D5AE7F52884}" centerLine="FALSE" start="11" end="12" width="10.000000" weightLimit="0" name="1" drawSurface="FALSE" drawDetail="TRUE" groundMerging="TRUE" excludeVegetationAround="TRUE" excludeVegetationInside="TRUE"/>
		<TaxiwayPath groupIndex="101" type="TAXI" surface="{85D02B2B-08A1-452E-AB07-6D5AE7F52884}" centerLine="FALSE" start="12" end="13" width="10.000000" weightLimit="0" name="1" drawSurface="FALSE" drawDetail="TRUE" groundMerging="TRUE" excludeVegetationAround="TRUE" excludeVegetationInside="TRUE"/>
		<TaxiwayPath groupIndex="100" type="TAXI" surface="{85D02B2B-08A1-452E-AB07-6D5AE7F52884}" centerLine="FALSE" start="13" end="14" width="10.000000" weightLimit="0" name="1" drawSurface="FALSE" drawDetail="TRUE" groundMerging="TRUE" excludeVegetationAround="TRUE" excludeVegetationInside="TRUE"/>
		<TaxiwayPath groupIndex="91" type="TAXI" surface="{85D02B2B-08A1-452E-AB07-6D5AE7F52884}" centerLine="FALSE" start="16" end="4" width="30.000000" weightLimit="0" name="2" drawSurface="FALSE" drawDetail="TRUE" groundMerging="TRUE" excludeVegetationAround="TRUE" excludeVegetationInside="TRUE"/>
		<TaxiwayPath groupIndex="90" type="TAXI" surface="{85D02B2B-08A1-452E-AB07-6D5AE7F52884}" centerLine="FALSE" start="19" end="15" width="30.000000" weightLimit="0" name="2" drawSurface="FALSE" drawDetail="TRUE" groundMerging="TRUE" excludeVegetationAround="TRUE" excludeVegetationInside="TRUE"/>
		<TaxiwayPath groupIndex="46" type="TAXI" surface="{B008C78F-E00D-4776-9AFB-3842E7C0D02F}" centerLine="FALSE" start="21" end="17" width="15.240000" weightLimit="0" name="2" drawSurface="FALSE" drawDetail="FALSE" groundMerging="TRUE" excludeVegetationAround="FALSE" excludeVegetationInside="FALSE"/>
		<TaxiwayPath groupIndex="87" type="TAXI" surface="{85D02B2B-08A1-452E-AB07-6D5AE7F52884}" centerLine="FALSE" start="22" end="17" width="30.000000" weightLimit="0" name="2" drawSurface="FALSE" drawDetail="TRUE" groundMerging="TRUE" excludeVegetationAround="TRUE" excludeVegetationInside="TRUE"/>
		<TaxiwayPath groupIndex="89" type="TAXI" surface="{85D02B2B-08A1-452E-AB07-6D5AE7F52884}" centerLine="FALSE" start="4" end="19" width="30.000000" weightLimit="0" name="2" drawSurface="FALSE" drawDetail="TRUE" groundMerging="TRUE" excludeVegetationAround="TRUE" excludeVegetationInside="TRUE"/>
		<TaxiwayPath groupIndex="88" type="TAXI" surface="{85D02B2B-08A1-452E-AB07-6D5AE7F52884}" centerLine="FALSE" start="15" end="22" width="30.000000" weightLimit="0" name="2" drawSurface="FALSE" drawDetail="TRUE" groundMerging="TRUE" excludeVegetationAround="TRUE" excludeVegetationInside="TRUE"/>
		<TaxiwayPath groupIndex="45" type="TAXI" surface="{B008C78F-E00D-4776-9AFB-3842E7C0D02F}" centerLine="FALSE" start="37" end="36" width="15.240000" weightLimit="0" name="3" drawSurface="FALSE" drawDetail="FALSE" groundMerging="FALSE" excludeVegetationAround="FALSE" excludeVegetationInside="FALSE"/>
		<TaxiwayPath groupIndex="142" type="RUNWAY" surface="{B008C78F-E00D-4776-9AFB-3842E7C0D02F}" centerLine="TRUE" start="9" end="0" width="15.240000" weightLimit="0" number="12" designator="NONE" drawSurface="FALSE" drawDetail="FALSE" groundMerging="FALSE" excludeVegetationAround="FALSE" excludeVegetationInside="FALSE">
			<Coloration red="128" green="128" blue="128" alpha="255" override="TRUE"/>
		</TaxiwayPath>
		<Runway groupIndex="77" lat="59.96945913881060" lon="11.03931337594990" alt="106.52700000000000" heading="122.73139953613281" length="1624.55004882812500" width="28.80999946594238" patternAltitude="304.79998779296875" surface="{2E0DE83F-B79A-4435-905C-DCBBEAC55C59}" transparent="FALSE" number="12" designator="NONE" primaryLanding="TRUE" primaryTakeoff="TRUE" primaryPattern="LEFT" secondaryLanding="TRUE" secondaryTakeoff="TRUE" secondaryPattern="LEFT" primaryMarkingBias="0.00000000000000" secondaryMarkingBias="0.00000000000000" groundMerging="FALSE" excludeVegetationAround="FALSE">
			<RunwayDeformation alt="105.155998" ratio="0.000000" controlPointBefore="0.000000" controlPointAfter="0.000000"/>
			<RunwayDeformation alt="107.765228" ratio="0.493956"/>
			<RunwayDeformation alt="105.141632" ratio="1.000000" controlPointBefore="0.000000" controlPointAfter="0.000000"/>
			<Coloration red="112" green="112" blue="112" alpha="255" override="TRUE"/>
			<Markings edges="FALSE" threshold="FALSE" alternateThreshold="FALSE" fixedDistance="FALSE" alternateFixedDistance="FALSE" touchdown="FALSE" alternateTouchdown="FALSE" dashes="FALSE" ident="FALSE" leadingZeroIdent="FALSE" precision="FALSE" alternatePrecision="FALSE" edgePavement="FALSE" singleEnd="FALSE" primaryClosed="FALSE" secondaryClosed="FALSE" primaryStol="FALSE" secondaryStol="FALSE" noThresholdEndArrows="TRUE"/>
			<Lights center="NONE" edge="NONE"/>
			<RunwayStart end="PRIMARY" lat="59.97218560427430" lon="11.03083580732350" alt="106.52700000000000" heading="122.73139953613281"/>
			<RunwayStart end="SECONDARY" lat="59.96602423489090" lon="11.04998856782910" alt="106.52700000000000" heading="302.73141479492188"/>
		</Runway>
		<Helipad groupIndex="122" type="NONE" lat="59.96776199608195" lon="11.04755493885593" alt="107.27553002908826" heading="217.899185" length="9.804893" width="9.804893" surface="CEMENT" closed="FALSE" transparent="TRUE"/>
		<Helipad groupIndex="123" type="NONE" lat="59.96789670911657" lon="11.04717725368981" alt="107.27452397719026" heading="217.899185" length="9.804893" width="9.804893" surface="CEMENT" closed="FALSE" transparent="TRUE"/>
		<Helipad groupIndex="126" type="NONE" lat="59.96896034084078" lon="11.04707418696294" alt="107.27405539993197" heading="235.200592" length="14.006992" width="14.006992" surface="CEMENT" closed="FALSE" transparent="TRUE"/>
		<Helipad groupIndex="125" type="NONE" lat="59.96896034084607" lon="11.04707418696294" alt="107.27405511587858" heading="235.200592" length="14.006992" width="14.006992" surface="CEMENT" closed="FALSE" transparent="TRUE"/>
		<Helipad groupIndex="121" type="NONE" lat="59.96929570302827" lon="11.04801678327959" alt="107.27733317203820" heading="235.200592" length="14.006992" width="14.006992" surface="CEMENT" closed="FALSE" transparent="TRUE"/>
		<Aprons>
			<Apron groupIndex="117" surface="{043E13A1-758B-43C9-B4D2-EEB33E597935}" drawSurface="TRUE" drawDetail="TRUE" localUV="FALSE" stretchUV="FALSE" priority="0" tiling="25.000000" heading="0.000000" falloff="20.000000" opacity="255" groundMerging="TRUE" excludeVegetationAround="TRUE" excludeVegetationInside="TRUE" isRectangle="FALSE">
				<Coloration red="49" green="66" blue="32" alpha="255" override="TRUE"/>
				<Vertex lat="59.96690389283044" lon="11.04976900818204"/>
				<Vertex lat="59.96692240742931" lon="11.04979054237011"/>
				<Vertex lat="59.96693649280460" lon="11.04983378739049"/>
				<Vertex lat="59.96690444994211" lon="11.04997172662287"/>
				<Vertex lat="59.96686877879837" lon="11.04991935529865"/>
			</Apron>
			<Apron groupIndex="115" surface="{37AF92FE-A9CA-4A6A-AA94-5EDAA61AEC86}" drawSurface="TRUE" drawDetail="TRUE" localUV="FALSE" stretchUV="FALSE" priority="0" tiling="25.000000" heading="0.000000" falloff="0.000000" opacity="255" groundMerging="FALSE" excludeVegetationAround="TRUE" excludeVegetationInside="TRUE" isRectangle="FALSE">
				<Coloration red="104" green="99" blue="99" alpha="255" override="TRUE"/>
				<Vertex lat="59.96739017359641" lon="11.04976109593836"/>
				<Vertex lat="59.96739999866603" lon="11.04967273615866"/>
				<Vertex lat="59.96713868354076" lon="11.04900012886832"/>
				<Vertex lat="59.96690372977741" lon="11.04974664455144"/>
				<Vertex lat="59.96695456750076" lon="11.04987856344085"/>
				<Vertex lat="59.96698950392791" lon="11.04992059973091"/>
				<Vertex lat="59.96703242171441" lon="11.04992385726065"/>
				<Vertex lat="59.96706619555501" lon="11.04993706090138"/>
				<Vertex lat="59.96707644807429" lon="11.04995818471180"/>
				<Vertex lat="59.96706353579044" lon="11.05010562166417"/>
				<Vertex lat="59.96710452810979" lon="11.04998182370296"/>
				<Vertex lat="59.96710700149543" lon="11.04995570454555"/>
				<Vertex lat="59.96710239362546" lon="11.04992742191926"/>
				<Vertex lat="59.96712832459340" lon="11.04987227693848"/>
				<Vertex lat="59.96713810157706" lon="11.04988008932336"/>
				<Vertex lat="59.96715271765481" lon="11.04988483366869"/>
				<Vertex lat="59.96718569822929" lon="11.04985977447036"/>
				<Vertex lat="59.96726663393788" lon="11.04977376746037"/>
				<Vertex lat="59.96731655278803" lon="11.04974597152533"/>
				<Vertex lat="59.96735705582807" lon="11.04974625309718"/>
			</Apron>
			<Apron groupIndex="118" surface="{37AF92FE-A9CA-4A6A-AA94-5EDAA61AEC86}" drawSurface="TRUE" drawDetail="TRUE" localUV="FALSE" stretchUV="FALSE" priority="0" tiling="25.000000" heading="0.000000" falloff="0.000000" opacity="255" groundMerging="FALSE" excludeVegetationAround="TRUE" excludeVegetationInside="TRUE" isRectangle="FALSE">
				<Coloration red="97" green="87" blue="87" alpha="255" override="TRUE"/>
				<Vertex lat="59.96800748173512" lon="11.05132952081575"/>
				<Vertex lat="59.96805047051279" lon="11.05144161157314"/>
				<Vertex lat="59.96789604628270" lon="11.05157484901597"/>
				<Vertex lat="59.96778889883211" lon="11.05158929054105"/>
				<Vertex lat="59.96764050623547" lon="11.05157135461486"/>
				<Vertex lat="59.96747110108414" lon="11.05147407764804"/>
				<Vertex lat="59.96734925783743" lon="11.05138228975745"/>
				<Vertex lat="59.96721327172617" lon="11.05126650229062"/>
				<Vertex lat="59.96710388013651" lon="11.05118808258608"/>
				<Vertex lat="59.96703787169889" lon="11.05116077925643"/>
				<Vertex lat="59.96699557150359" lon="11.05115771952570"/>
				<Vertex lat="59.96696716141359" lon="11.05117014408502"/>
				<Vertex lat="59.96693902898311" lon="11.05119972065713"/>
				<Vertex lat="59.96691035461823" lon="11.05127068579891"/>
				<Vertex lat="59.96688985078838" lon="11.05133936733849"/>
				<Vertex lat="59.96687657430398" lon="11.05145819365096"/>
				<Vertex lat="59.96686941961138" lon="11.05175577905107"/>
				<Vertex lat="59.96681166990091" lon="11.05177301134141"/>
				<Vertex lat="59.96681602371078" lon="11.05154733504807"/>
				<Vertex lat="59.96682038142526" lon="11.05138328209569"/>
				<Vertex lat="59.96682418068740" lon="11.05131713290237"/>
				<Vertex lat="59.96684158837738" lon="11.05125881780009"/>
				<Vertex lat="59.96686721867238" lon="11.05118606459478"/>
				<Vertex lat="59.96690723442914" lon="11.05110809039834"/>
				<Vertex lat="59.96693573428686" lon="11.05101336730142"/>
				<Vertex lat="59.96697354310863" lon="11.05068054487869"/>
				<Vertex lat="59.96702273911782" lon="11.05031484739734"/>
				<Vertex lat="59.96706355690090" lon="11.05010011418823"/>
				<Vertex lat="59.96710393489739" lon="11.04996945593149"/>
				<Vertex lat="59.96710443115005" lon="11.04994332717417"/>
				<Vertex lat="59.96710114671392" lon="11.04991861116365"/>
				<Vertex lat="59.96712625643236" lon="11.04986028810707"/>
				<Vertex lat="59.96713682580042" lon="11.04987016867305"/>
				<Vertex lat="59.96715049543396" lon="11.04987637223687"/>
				<Vertex lat="59.96718309999050" lon="11.04985169279064"/>
				<Vertex lat="59.96726634954740" lon="11.04976711217577"/>
				<Vertex lat="59.96731374388974" lon="11.04973700030588"/>
				<Vertex lat="59.96735420054510" lon="11.04973661398338"/>
				<Vertex lat="59.96740028466537" lon="11.04976496103840"/>
				<Vertex lat="59.96746112586914" lon="11.04983652642359"/>
				<Vertex lat="59.96750770909931" lon="11.04987410518720"/>
				<Vertex lat="59.96755227123002" lon="11.04988039798887"/>
				<Vertex lat="59.96761974450388" lon="11.04986147971301"/>
				<Vertex lat="59.96760419788632" lon="11.05001050001611"/>
				<Vertex lat="59.96754686216054" lon="11.05001373907336"/>
				<Vertex lat="59.96750244522214" lon="11.04999344358101"/>
				<Vertex lat="59.96746890748756" lon="11.04996356317593"/>
				<Vertex lat="59.96740172599536" lon="11.04989685458754"/>
				<Vertex lat="59.96737305826985" lon="11.04986823644721"/>
				<Vertex lat="59.96734499492608" lon="11.04985990510391"/>
				<Vertex lat="59.96730565818587" lon="11.04985677927719"/>
				<Vertex lat="59.96725778132745" lon="11.04989583198435"/>
				<Vertex lat="59.96720921315241" lon="11.04993402038934"/>
				<Vertex lat="59.96716110489824" lon="11.05000781647478"/>
				<Vertex lat="59.96711269149574" lon="11.05011097314319"/>
				<Vertex lat="59.96708345903684" lon="11.05026448411481"/>
				<Vertex lat="59.96705414914110" lon="11.05041265322816"/>
				<Vertex lat="59.96702325826970" lon="11.05066759553216"/>
				<Vertex lat="59.96701205134564" lon="11.05079013688455"/>
				<Vertex lat="59.96748460292230" lon="11.05015624106490"/>
				<Vertex lat="59.96750465296861" lon="11.05022283258879"/>
				<Vertex lat="59.96735130682901" lon="11.05046383829428"/>
				<Vertex lat="59.96735687297210" lon="11.05053057695572"/>
				<Vertex lat="59.96734667648722" lon="11.05057339301719"/>
				<Vertex lat="59.96730941387444" lon="11.05066070104742"/>
				<Vertex lat="59.96727039989177" lon="11.05067685732223"/>
				<Vertex lat="59.96724671076029" lon="11.05064433219704"/>
				<Vertex lat="59.96722942191515" lon="11.05065375406489"/>
				<Vertex lat="59.96701133508051" lon="11.05094282587684"/>
				<Vertex lat="59.96701319827674" lon="11.05098026381429"/>
				<Vertex lat="59.96702464775020" lon="11.05101631056594"/>
				<Vertex lat="59.96707214027578" lon="11.05104425076719"/>
				<Vertex lat="59.96722341504334" lon="11.05114668009126"/>
				<Vertex lat="59.96743046681773" lon="11.05130941985656"/>
				<Vertex lat="59.96756754553681" lon="11.05140948139929"/>
				<Vertex lat="59.96761547973615" lon="11.05138782529038"/>
				<Vertex lat="59.96764000789302" lon="11.05133585180216"/>
				<Vertex lat="59.96765104452881" lon="11.05130097358619"/>
				<Vertex lat="59.96768908973949" lon="11.05139181479265"/>
				<Vertex lat="59.96774843278109" lon="11.05144245171951"/>
				<Vertex lat="59.96783234201938" lon="11.05144713099064"/>
				<Vertex lat="59.96793204166454" lon="11.05140356290137"/>
			</Apron>
			<Apron groupIndex="147" surface="{63F42C85-7DE8-44C6-B98C-E9BFB72C7B24}" drawSurface="TRUE" drawDetail="TRUE" localUV="FALSE" stretchUV="FALSE" priority="0" tiling="25.000000" heading="0.000000" falloff="10.000000" opacity="255" groundMerging="FALSE" excludeVegetationAround="TRUE" excludeVegetationInside="TRUE" isRectangle="FALSE">
				<Coloration red="15" green="70" blue="46" alpha="255" override="TRUE"/>
				<Vertex lat="59.96746823675447" lon="11.04936653727154"/>
				<Vertex lat="59.96738005913307" lon="11.04949528330424"/>
				<Vertex lat="59.96745415515717" lon="11.04971343630414"/>
				<Vertex lat="59.96754233277847" lon="11.04959765428164"/>
			</Apron>
			<Apron groupIndex="146" surface="{63F42C85-7DE8-44C6-B98C-E9BFB72C7B24}" drawSurface="TRUE" drawDetail="TRUE" localUV="FALSE" stretchUV="FALSE" priority="0" tiling="25.000000" heading="0.000000" falloff="10.000000" opacity="255" groundMerging="FALSE" excludeVegetationAround="TRUE" excludeVegetationInside="TRUE" isRectangle="FALSE">
				<Coloration red="15" green="70" blue="46" alpha="255" override="TRUE"/>
				<Vertex lat="59.96753275949278" lon="11.04861479366948"/>
				<Vertex lat="59.96744458187138" lon="11.04874353970217"/>
				<Vertex lat="59.96751867789548" lon="11.04896169270208"/>
				<Vertex lat="59.96760685551678" lon="11.04884591067957"/>
			</Apron>
			<Apron displayName="Apron (copy)" groupIndex="145" surface="{63F42C85-7DE8-44C6-B98C-E9BFB72C7B24}" drawSurface="TRUE" drawDetail="TRUE" localUV="FALSE" stretchUV="FALSE" priority="0" tiling="25.000000" heading="0.000000" falloff="10.000000" opacity="255" groundMerging="FALSE" excludeVegetationAround="TRUE" excludeVegetationInside="TRUE" isRectangle="FALSE">
				<Coloration red="15" green="70" blue="46" alpha="255" override="TRUE"/>
				<Vertex lat="59.96753275949278" lon="11.04861479366948"/>
				<Vertex lat="59.96744458187138" lon="11.04874353970217"/>
				<Vertex lat="59.96751867789548" lon="11.04896169270208"/>
				<Vertex lat="59.96760685551678" lon="11.04884591067957"/>
			</Apron>
			<Apron groupIndex="148" surface="{63F42C85-7DE8-44C6-B98C-E9BFB72C7B24}" drawSurface="TRUE" drawDetail="TRUE" localUV="FALSE" stretchUV="FALSE" priority="0" tiling="25.000000" heading="0.000000" falloff="10.000000" opacity="255" groundMerging="FALSE" excludeVegetationAround="TRUE" excludeVegetationInside="TRUE" isRectangle="FALSE">
				<Coloration red="15" green="70" blue="46" alpha="255" override="TRUE"/>
				<Vertex lat="59.96764399753867" lon="11.04902901137848"/>
				<Vertex lat="59.96755581991727" lon="11.04915775741118"/>
				<Vertex lat="59.96762991594137" lon="11.04937591041108"/>
				<Vertex lat="59.96771809356267" lon="11.04926012838858"/>
			</Apron>
			<Apron groupIndex="144" surface="{63F42C85-7DE8-44C6-B98C-E9BFB72C7B24}" drawSurface="TRUE" drawDetail="TRUE" localUV="FALSE" stretchUV="FALSE" priority="0" tiling="25.000000" heading="0.000000" falloff="10.000000" opacity="255" groundMerging="FALSE" excludeVegetationAround="TRUE" excludeVegetationInside="TRUE" isRectangle="FALSE">
				<Coloration red="15" green="70" blue="46" alpha="255" override="TRUE"/>
				<Vertex lat="59.96771489958672" lon="11.04928800095718"/>
				<Vertex lat="59.96762672196532" lon="11.04941674698988"/>
				<Vertex lat="59.96770081798942" lon="11.04963489998978"/>
				<Vertex lat="59.96778899561072" lon="11.04951911796728"/>
			</Apron>
			<Apron groupIndex="129" surface="{37AF92FE-A9CA-4A6A-AA94-5EDAA61AEC86}" drawSurface="TRUE" drawDetail="TRUE" localUV="FALSE" stretchUV="FALSE" priority="0" tiling="25.000000" heading="0.000000" falloff="1.000000" opacity="255" groundMerging="FALSE" excludeVegetationAround="TRUE" excludeVegetationInside="TRUE" isRectangle="FALSE">
				<Coloration red="113" green="103" blue="103" alpha="255" override="TRUE"/>
				<Vertex lat="59.96781789057385" lon="11.04771526248984"/>
				<Vertex lat="59.96768957576911" lon="11.04749991791171"/>
				<Vertex lat="59.96771920226774" lon="11.04741483907685"/>
				<Vertex lat="59.96784983177209" lon="11.04762793180636"/>
			</Apron>
			<Apron groupIndex="113" surface="{2B809652-F4C3-4622-A698-9DEBD0B8A0A7}" drawSurface="TRUE" drawDetail="TRUE" localUV="FALSE" stretchUV="FALSE" priority="0" tiling="25.000000" heading="0.000000" falloff="20.000000" opacity="255" groundMerging="FALSE" excludeVegetationAround="TRUE" excludeVegetationInside="TRUE" isRectangle="FALSE">
				<Coloration red="68" green="98" blue="68" alpha="255" override="TRUE"/>
				<Vertex lat="59.96770088640053" lon="11.04721852027701"/>
				<Vertex lat="59.96783727153839" lon="11.04720897278297"/>
				<Vertex lat="59.96784084396057" lon="11.04716663895246"/>
				<Vertex lat="59.96778520576838" lon="11.04704575430845"/>
				<Vertex lat="59.96770568903683" lon="11.04706379149529"/>
			</Apron>
			<Apron groupIndex="130" surface="{37AF92FE-A9CA-4A6A-AA94-5EDAA61AEC86}" drawSurface="TRUE" drawDetail="TRUE" localUV="FALSE" stretchUV="FALSE" priority="0" tiling="25.000000" heading="0.000000" falloff="1.000000" opacity="255" groundMerging="FALSE" excludeVegetationAround="TRUE" excludeVegetationInside="TRUE" isRectangle="FALSE">
				<Coloration red="113" green="103" blue="103" alpha="255" override="TRUE"/>
				<Vertex lat="59.96795030495205" lon="11.04733541980584"/>
				<Vertex lat="59.96782199014730" lon="11.04712007522771"/>
				<Vertex lat="59.96784781218079" lon="11.04703627715448"/>
				<Vertex lat="59.96798224615029" lon="11.04724808912236"/>
			</Apron>
			<Apron groupIndex="120" surface="{37AF92FE-A9CA-4A6A-AA94-5EDAA61AEC86}" drawSurface="TRUE" drawDetail="TRUE" localUV="FALSE" stretchUV="FALSE" priority="0" tiling="25.000000" heading="0.000000" falloff="0.000000" opacity="255" groundMerging="FALSE" excludeVegetationAround="TRUE" excludeVegetationInside="TRUE" isRectangle="FALSE">
				<Coloration red="113" green="103" blue="103" alpha="255" override="TRUE"/>
				<Vertex lat="59.96790061353875" lon="11.04931874310544"/>
				<Vertex lat="59.96792338646866" lon="11.04938924763706"/>
				<Vertex lat="59.96794643323680" lon="11.04944292177826"/>
				<Vertex lat="59.96797521139912" lon="11.04950046697584"/>
				<Vertex lat="59.96798763343871" lon="11.04949309689000"/>
				<Vertex lat="59.96807540744484" lon="11.04933044235549"/>
				<Vertex lat="59.96818260873275" lon="11.04915587253028"/>
				<Vertex lat="59.96820199973937" lon="11.04921733278096"/>
				<Vertex lat="59.96809088127594" lon="11.04938351855493"/>
				<Vertex lat="59.96850417518416" lon="11.05053118857595"/>
				<Vertex lat="59.96842976121773" lon="11.05062771714639"/>
				<Vertex lat="59.96845669819390" lon="11.05071993569281"/>
				<Vertex lat="59.96840905939475" lon="11.05077984896433"/>
				<Vertex lat="59.96824325725383" lon="11.05036803050345"/>
				<Vertex lat="59.96813267181137" lon="11.05052229658316"/>
				<Vertex lat="59.96796144219297" lon="11.05075872400682"/>
				<Vertex lat="59.96810409705932" lon="11.05110574910463"/>
				<Vertex lat="59.96804344650181" lon="11.05120314820141"/>
				<Vertex lat="59.96804783258155" lon="11.05126265047320"/>
				<Vertex lat="59.96803212869709" lon="11.05131559093765"/>
				<Vertex lat="59.96800737598262" lon="11.05133122523325"/>
				<Vertex lat="59.96796399488909" lon="11.05139143553483"/>
				<Vertex lat="59.96791087791119" lon="11.05142209569389"/>
				<Vertex lat="59.96784168398622" lon="11.05144154739800"/>
				<Vertex lat="59.96777166138066" lon="11.05144888460698"/>
				<Vertex lat="59.96771977696993" lon="11.05142252408223"/>
				<Vertex lat="59.96767893663710" lon="11.05138112118166"/>
				<Vertex lat="59.96761551617696" lon="11.05120787972523"/>
				<Vertex lat="59.96765429185312" lon="11.05121884321898"/>
				<Vertex lat="59.96779732482928" lon="11.05101809380607"/>
				<Vertex lat="59.96751412201229" lon="11.05021804018209"/>
				<Vertex lat="59.96765541791049" lon="11.05004258634300"/>
				<Vertex lat="59.96764655548260" lon="11.05001667401226"/>
				<Vertex lat="59.96762878972905" lon="11.05000670092546"/>
				<Vertex lat="59.96760184981289" lon="11.05001074108912"/>
				<Vertex lat="59.96761296664108" lon="11.04986425783584"/>
				<Vertex lat="59.96768642870280" lon="11.04977393952591"/>
				<Vertex lat="59.96782993031966" lon="11.04957335519788"/>
				<Vertex lat="59.96785030067107" lon="11.04953171296499"/>
				<Vertex lat="59.96786006370598" lon="11.04949359678560"/>
				<Vertex lat="59.96786293290991" lon="11.04944874856154"/>
				<Vertex lat="59.96785878321349" lon="11.04941525344094"/>
				<Vertex lat="59.96785194393801" lon="11.04938188809649"/>
			</Apron>
			<Apron groupIndex="132" surface="{37AF92FE-A9CA-4A6A-AA94-5EDAA61AEC86}" drawSurface="TRUE" drawDetail="TRUE" localUV="FALSE" stretchUV="FALSE" priority="2" tiling="25.000000" heading="0.000000" falloff="0.000000" opacity="255" groundMerging="FALSE" excludeVegetationAround="TRUE" excludeVegetationInside="TRUE" isRectangle="FALSE">
				<Coloration red="113" green="103" blue="103" alpha="255" override="TRUE"/>
				<Vertex lat="59.96781411404430" lon="11.04493165887784"/>
				<Vertex lat="59.96761352166281" lon="11.04554755042195"/>
				<Vertex lat="59.96765178647696" lon="11.04549045636561"/>
				<Vertex lat="59.96768375846862" lon="11.04546468366870"/>
				<Vertex lat="59.96772541775231" lon="11.04546111891665"/>
				<Vertex lat="59.96775826218802" lon="11.04546540254505"/>
				<Vertex lat="59.96780220007140" lon="11.04548837065005"/>
				<Vertex lat="59.96782959300472" lon="11.04552021732105"/>
				<Vertex lat="59.96786133153950" lon="11.04558152085054"/>
				<Vertex lat="59.96794620037554" lon="11.04578081869520"/>
				<Vertex lat="59.96814540683852" lon="11.04630730459839"/>
				<Vertex lat="59.96817097149133" lon="11.04639012462262"/>
				<Vertex lat="59.96817949850631" lon="11.04645206968484"/>
				<Vertex lat="59.96818145340237" lon="11.04653308643405"/>
				<Vertex lat="59.96817644189090" lon="11.04662437714094"/>
				<Vertex lat="59.96816135556557" lon="11.04669785023227"/>
				<Vertex lat="59.96809882404792" lon="11.04688169222541"/>
				<Vertex lat="59.96777045057900" lon="11.04784294774726"/>
				<Vertex lat="59.96773267110095" lon="11.04793109467668"/>
				<Vertex lat="59.96768651006835" lon="11.04798894545435"/>
				<Vertex lat="59.96762001006320" lon="11.04799932530140"/>
				<Vertex lat="59.96755652576423" lon="11.04795538022634"/>
				<Vertex lat="59.96751380742273" lon="11.04789664852037"/>
				<Vertex lat="59.96747503109314" lon="11.04778309432050"/>
				<Vertex lat="59.96723887813554" lon="11.04674446693211"/>
				<Vertex lat="59.96715444730184" lon="11.04703265708324"/>
				<Vertex lat="59.96717944165108" lon="11.04702676932513"/>
				<Vertex lat="59.96720262499257" lon="11.04702957274204"/>
				<Vertex lat="59.96722096758449" lon="11.04704999841629"/>
				<Vertex lat="59.96724233236876" lon="11.04710339378974"/>
				<Vertex lat="59.96748803902724" lon="11.04821545117908"/>
				<Vertex lat="59.96755066576120" lon="11.04844066948035"/>
				<Vertex lat="59.96785340687449" lon="11.04938466062565"/>
				<Vertex lat="59.96790618773259" lon="11.04932372223345"/>
				<Vertex lat="59.96788207943153" lon="11.04922589093086"/>
				<Vertex lat="59.96787928361221" lon="11.04919023888547"/>
				<Vertex lat="59.96788182137698" lon="11.04915847080416"/>
				<Vertex lat="59.96790088506772" lon="11.04911786473287"/>
				<Vertex lat="59.96799417706963" lon="11.04898660668417"/>
				<Vertex lat="59.96813284677737" lon="11.04882978002119"/>
				<Vertex lat="59.96821717126479" lon="11.04876522612818"/>
				<Vertex lat="59.96823232593174" lon="11.04877782083382"/>
				<Vertex lat="59.96825494914109" lon="11.04882860159658"/>
				<Vertex lat="59.96828633953976" lon="11.04891781119845"/>
				<Vertex lat="59.96877347380109" lon="11.05025297998156"/>
				<Vertex lat="59.96885824865910" lon="11.05011004873783"/>
				<Vertex lat="59.96880072486968" lon="11.04995312989487"/>
				<Vertex lat="59.96888129513885" lon="11.04983053535402"/>
				<Vertex lat="59.96829547062472" lon="11.04816225051785"/>
				<Vertex lat="59.96821450483527" lon="11.04833204851993"/>
				<Vertex lat="59.96826261963145" lon="11.04845354798891"/>
				<Vertex lat="59.96826536202067" lon="11.04847197255974"/>
				<Vertex lat="59.96826167013534" lon="11.04851475580330"/>
				<Vertex lat="59.96824187628427" lon="11.04855476935912"/>
				<Vertex lat="59.96811985612808" lon="11.04873254914655"/>
				<Vertex lat="59.96798646660065" lon="11.04887497983305"/>
				<Vertex lat="59.96796275264009" lon="11.04888376821383"/>
				<Vertex lat="59.96792890856199" lon="11.04887414828082"/>
				<Vertex lat="59.96789945951546" lon="11.04884650217545"/>
				<Vertex lat="59.96785949284361" lon="11.04878706767633"/>
				<Vertex lat="59.96784078459199" lon="11.04873733537152"/>
				<Vertex lat="59.96780208696327" lon="11.04865384228473"/>
				<Vertex lat="59.96777605852047" lon="11.04856395375507"/>
				<Vertex lat="59.96776040892573" lon="11.04850867629034"/>
				<Vertex lat="59.96775659545326" lon="11.04845965678899"/>
				<Vertex lat="59.96776450918495" lon="11.04843161205726"/>
				<Vertex lat="59.96777628006992" lon="11.04840052635903"/>
				<Vertex lat="59.96780763075026" lon="11.04837401594320"/>
				<Vertex lat="59.96798416511004" lon="11.04820032880135"/>
				<Vertex lat="59.96821396360593" lon="11.04833959355175"/>
				<Vertex lat="59.96851225865534" lon="11.04794091822659"/>
				<Vertex lat="59.96842141127872" lon="11.04770393462342"/>
				<Vertex lat="59.96841026068772" lon="11.04772631987804"/>
				<Vertex lat="59.96819809547330" lon="11.04721042586834"/>
				<Vertex lat="59.96817340211227" lon="11.04716301437721"/>
				<Vertex lat="59.96815399654766" lon="11.04712914752989"/>
				<Vertex lat="59.96813903846315" lon="11.04710056467198"/>
				<Vertex lat="59.96813728181012" lon="11.04708784002908"/>
				<Vertex lat="59.96813852426019" lon="11.04706982698929"/>
				<Vertex lat="59.96814923481120" lon="11.04704102995975"/>
				<Vertex lat="59.96816683142258" lon="11.04699828978123"/>
				<Vertex lat="59.96819055048269" lon="11.04695937721866"/>
				<Vertex lat="59.96820946913405" lon="11.04693589631949"/>
				<Vertex lat="59.96823354570797" lon="11.04692056705271"/>
				<Vertex lat="59.96825995522249" lon="11.04691229207848"/>
				<Vertex lat="59.96830711985805" lon="11.04692266763588"/>
				<Vertex lat="59.96834094449239" lon="11.04694156720380"/>
				<Vertex lat="59.96836693813925" lon="11.04697489913144"/>
				<Vertex lat="59.96842186390180" lon="11.04705314547587"/>
				<Vertex lat="59.96860858531089" lon="11.04754703801551"/>
				<Vertex lat="59.96862563910204" lon="11.04760552225234"/>
				<Vertex lat="59.96867538704767" lon="11.04749344510831"/>
				<Vertex lat="59.96854325797194" lon="11.04717679851471"/>
				<Vertex lat="59.96837848995255" lon="11.04671446506778"/>
				<Vertex lat="59.96811965489251" lon="11.04599612389236"/>
				<Vertex lat="59.96789365177342" lon="11.04537847243980"/>
				<Vertex lat="59.96783951918007" lon="11.04526072753939"/>
				<Vertex lat="59.96782435063720" lon="11.04522900381590"/>
				<Vertex lat="59.96781349407421" lon="11.04517766944532"/>
				<Vertex lat="59.96780820038875" lon="11.04512907242816"/>
				<Vertex lat="59.96780505481351" lon="11.04507444867325"/>
				<Vertex lat="59.96780752080343" lon="11.04500535485105"/>
			</Apron>
			<Apron groupIndex="119" surface="{A0C3B9DB-93F1-474A-B51F-9A61A41ACD40}" drawSurface="TRUE" drawDetail="TRUE" localUV="FALSE" stretchUV="FALSE" priority="1" tiling="25.000000" heading="0.000000" falloff="4.000000" opacity="255" groundMerging="TRUE" excludeVegetationAround="TRUE" excludeVegetationInside="TRUE" isRectangle="FALSE">
				<Coloration red="62" green="62" blue="62" alpha="255" override="TRUE"/>
				<Vertex lat="59.96795453615463" lon="11.05075847642937"/>
				<Vertex lat="59.96806753729857" lon="11.05104056954783"/>
				<Vertex lat="59.96823592644141" lon="11.05080534618721"/>
				<Vertex lat="59.96812601587125" lon="11.05052491686595"/>
			</Apron>
			<Apron groupIndex="149" surface="{63F42C85-7DE8-44C6-B98C-E9BFB72C7B24}" drawSurface="TRUE" drawDetail="TRUE" localUV="FALSE" stretchUV="FALSE" priority="0" tiling="25.000000" heading="0.000000" falloff="-1.000000" opacity="255" groundMerging="TRUE" excludeVegetationAround="TRUE" excludeVegetationInside="TRUE" isRectangle="FALSE">
				<Coloration red="35" green="52" blue="50" alpha="255" override="TRUE"/>
				<Vertex lat="59.96817536652090" lon="11.04903057217600"/>
				<Vertex lat="59.96815491467710" lon="11.04905784130100"/>
				<Vertex lat="59.96818542480470" lon="11.04913830757140"/>
				<Vertex lat="59.96806003153320" lon="11.04930505156520"/>
				<Vertex lat="59.96807076036930" lon="11.04933857917790"/>
				<Vertex lat="59.96821492910390" lon="11.04914009571080"/>
				<Vertex lat="59.96820118278260" lon="11.04906857013700"/>
			</Apron>
			<Apron groupIndex="150" surface="{63F42C85-7DE8-44C6-B98C-E9BFB72C7B24}" drawSurface="TRUE" drawDetail="TRUE" localUV="FALSE" stretchUV="FALSE" priority="0" tiling="25.000000" heading="0.000000" falloff="-1.000000" opacity="255" groundMerging="TRUE" excludeVegetationAround="TRUE" excludeVegetationInside="TRUE" isRectangle="FALSE">
				<Coloration red="50" green="56" blue="53" alpha="255" override="TRUE"/>
				<Vertex lat="59.96825717389580" lon="11.04844182729720"/>
				<Vertex lat="59.96823068708180" lon="11.04836985468860"/>
				<Vertex lat="59.96817301958800" lon="11.04845881462100"/>
				<Vertex lat="59.96819648891690" lon="11.04853838682170"/>
			</Apron>
			<Apron groupIndex="116" surface="{043E13A1-758B-43C9-B4D2-EEB33E597935}" drawSurface="TRUE" drawDetail="TRUE" localUV="FALSE" stretchUV="FALSE" priority="0" tiling="25.000000" heading="0.000000" falloff="10.000000" opacity="255" groundMerging="FALSE" excludeVegetationAround="TRUE" excludeVegetationInside="TRUE" isRectangle="FALSE">
				<Coloration red="68" green="85" blue="68" alpha="255" override="TRUE"/>
				<Vertex lat="59.96836052279379" lon="11.05066043197277"/>
				<Vertex lat="59.96824332077598" lon="11.05081870112838"/>
				<Vertex lat="59.96812575003996" lon="11.05051595792794"/>
				<Vertex lat="59.96824353255924" lon="11.05035822045788"/>
			</Apron>
			<Apron groupIndex="136" surface="{06FAA9D6-C849-41EF-879A-92CD66ACD7F6}" drawSurface="TRUE" drawDetail="TRUE" localUV="FALSE" stretchUV="FALSE" priority="1" tiling="25.000000" heading="0.000000" falloff="1.000000" opacity="255" groundMerging="FALSE" excludeVegetationAround="TRUE" excludeVegetationInside="TRUE" isRectangle="FALSE">
				<Coloration red="87" green="87" blue="87" alpha="255" override="TRUE"/>
				<Vertex lat="59.96838920863002" lon="11.04700040984123"/>
				<Vertex lat="59.96836438794770" lon="11.04696510468023"/>
				<Vertex lat="59.96818842926896" lon="11.04720130128677"/>
				<Vertex lat="59.96821474791843" lon="11.04726001593973"/>
			</Apron>
			<Apron groupIndex="135" surface="{06FAA9D6-C849-41EF-879A-92CD66ACD7F6}" drawSurface="TRUE" drawDetail="TRUE" localUV="FALSE" stretchUV="FALSE" priority="0" tiling="25.000000" heading="0.000000" falloff="1.000000" opacity="255" groundMerging="FALSE" excludeVegetationAround="TRUE" excludeVegetationInside="TRUE" isRectangle="FALSE">
				<Coloration red="101" green="101" blue="101" alpha="255" override="TRUE"/>
				<Vertex lat="59.96836529851684" lon="11.04762233646226"/>
				<Vertex lat="59.96841855030083" lon="11.04753703386633"/>
				<Vertex lat="59.96832796568840" lon="11.04728244727751"/>
				<Vertex lat="59.96828986065916" lon="11.04714221744245"/>
				<Vertex lat="59.96824120054677" lon="11.04721397234671"/>
				<Vertex lat="59.96825678623863" lon="11.04727857675929"/>
				<Vertex lat="59.96823705882896" lon="11.04731457900872"/>
			</Apron>
			<Apron groupIndex="114" surface="{2B809652-F4C3-4622-A698-9DEBD0B8A0A7}" drawSurface="TRUE" drawDetail="TRUE" localUV="FALSE" stretchUV="FALSE" priority="0" tiling="25.000000" heading="0.000000" falloff="10.000000" opacity="255" groundMerging="FALSE" excludeVegetationAround="TRUE" excludeVegetationInside="TRUE" isRectangle="FALSE">
				<Coloration red="50" green="64" blue="46" alpha="255" override="TRUE"/>
				<Vertex lat="59.96835805472411" lon="11.04721305752478"/>
				<Vertex lat="59.96831130307346" lon="11.04711125016447"/>
				<Vertex lat="59.96828905359442" lon="11.04714851089909"/>
				<Vertex lat="59.96832323632990" lon="11.04727047866588"/>
			</Apron>
			<Apron groupIndex="124" surface="{37AF92FE-A9CA-4A6A-AA94-5EDAA61AEC86}" drawSurface="TRUE" drawDetail="TRUE" localUV="FALSE" stretchUV="FALSE" priority="0" tiling="25.000000" heading="0.000000" falloff="0.000000" opacity="255" groundMerging="FALSE" excludeVegetationAround="TRUE" excludeVegetationInside="TRUE" isRectangle="FALSE">
				<Coloration red="113" green="103" blue="103" alpha="255" override="TRUE"/>
				<Vertex lat="59.96866969279705" lon="11.04748671078827"/>
				<Vertex lat="59.96871048031660" lon="11.04754960787888"/>
				<Vertex lat="59.96874494301115" lon="11.04755557306665"/>
				<Vertex lat="59.96877441455605" lon="11.04752406519806"/>
				<Vertex lat="59.96879896408566" lon="11.04749758045874"/>
				<Vertex lat="59.96880645452187" lon="11.04745518723010"/>
				<Vertex lat="59.96880256799196" lon="11.04742287596818"/>
				<Vertex lat="59.96873953883801" lon="11.04722130470146"/>
				<Vertex lat="59.96896774771535" lon="11.04687785528297"/>
				<Vertex lat="59.96939294758499" lon="11.04803761769627"/>
				<Vertex lat="59.96928499582803" lon="11.04822020000715"/>
				<Vertex lat="59.96948109566643" lon="11.04878292232353"/>
				<Vertex lat="59.96935221154327" lon="11.04898175178282"/>
				<Vertex lat="59.96888084116751" lon="11.04984002101417"/>
				<Vertex lat="59.96828963971336" lon="11.04817083667166"/>
				<Vertex lat="59.96845599766971" lon="11.04776218539640"/>
				<Vertex lat="59.96856554742403" lon="11.04763088732068"/>
				<Vertex lat="59.96859769945396" lon="11.04762248618315"/>
				<Vertex lat="59.96861796500977" lon="11.04761138769344"/>
			</Apron>
			<Apron groupIndex="153" surface="{63F42C85-7DE8-44C6-B98C-E9BFB72C7B24}" drawSurface="TRUE" drawDetail="TRUE" localUV="FALSE" stretchUV="FALSE" priority="0" tiling="25.000000" heading="0.000000" falloff="-1.000000" opacity="255" groundMerging="TRUE" excludeVegetationAround="TRUE" excludeVegetationInside="TRUE" isRectangle="FALSE">
				<Coloration red="32" green="46" blue="31" alpha="255" override="TRUE"/>
				<Vertex lat="59.96905546635390" lon="11.04706630110740"/>
				<Vertex lat="59.96930357068780" lon="11.04775026440620"/>
				<Vertex lat="59.96928781270980" lon="11.04776769876480"/>
				<Vertex lat="59.96930859982970" lon="11.04782044887540"/>
				<Vertex lat="59.96935419738290" lon="11.04774624109270"/>
				<Vertex lat="59.96911045163870" lon="11.04707971215250"/>
			</Apron>
			<Apron groupIndex="152" surface="{63F42C85-7DE8-44C6-B98C-E9BFB72C7B24}" drawSurface="TRUE" drawDetail="TRUE" localUV="FALSE" stretchUV="FALSE" priority="0" tiling="25.000000" heading="0.000000" falloff="-1.000000" opacity="255" groundMerging="TRUE" excludeVegetationAround="TRUE" excludeVegetationInside="TRUE" isRectangle="FALSE">
				<Coloration red="86" green="101" blue="93" alpha="255" override="TRUE"/>
				<Vertex lat="59.96933910995720" lon="11.04790180921550"/>
				<Vertex lat="59.96936660259960" lon="11.04797556996350"/>
				<Vertex lat="59.96937867254020" lon="11.04793980717660"/>
				<Vertex lat="59.96936190873380" lon="11.04789242148400"/>
			</Apron>
			<Apron groupIndex="151" surface="{63F42C85-7DE8-44C6-B98C-E9BFB72C7B24}" drawSurface="TRUE" drawDetail="TRUE" localUV="FALSE" stretchUV="FALSE" priority="0" tiling="25.000000" heading="0.000000" falloff="-1.000000" opacity="255" groundMerging="TRUE" excludeVegetationAround="TRUE" excludeVegetationInside="TRUE" isRectangle="FALSE">
				<Coloration red="62" green="76" blue="64" alpha="255" override="TRUE"/>
				<Vertex lat="59.96944706887010" lon="11.04819729924200"/>
				<Vertex lat="59.96951479464770" lon="11.04835733771320"/>
				<Vertex lat="59.96959593147040" lon="11.04860275983810"/>
				<Vertex lat="59.96948227286340" lon="11.04876771569250"/>
				<Vertex lat="59.96948897838590" lon="11.04880571365360"/>
				<Vertex lat="59.96953155845400" lon="11.04879230260850"/>
				<Vertex lat="59.96964823454620" lon="11.04861438274380"/>
				<Vertex lat="59.96962811797860" lon="11.04847222566600"/>
				<Vertex lat="59.96949467808010" lon="11.04816332459450"/>
			</Apron>
			<Apron displayName="Apron below runway" groupIndex="177" surface="{B008C78F-E00D-4776-9AFB-3842E7C0D02F}" drawSurface="TRUE" drawDetail="TRUE" localUV="FALSE" stretchUV="FALSE" priority="0" tiling="25.000000" heading="0.000000" falloff="-1.000000" opacity="255" groundMerging="FALSE" excludeVegetationAround="TRUE" excludeVegetationInside="TRUE" isRectangle="FALSE">
				<Coloration red="102" green="102" blue="102" alpha="255" override="TRUE"/>
				<Vertex lat="59.97389484196900" lon="11.02576106786730"/>
				<Vertex lat="59.97365545481440" lon="11.02581158280370"/>
				<Vertex lat="59.97228987514970" lon="11.02996900677680"/>
				<Vertex lat="59.97142184525730" lon="11.02884113788600"/>
				<Vertex lat="59.97147203190402" lon="11.02823143711041"/>
				<Vertex lat="59.97122226616171" lon="11.02814944610198"/>
				<Vertex lat="59.97123174369340" lon="11.02753981947900"/>
				<Vertex lat="59.97113719582560" lon="11.02715849876400"/>
				<Vertex lat="59.97108522802590" lon="11.02705478668210"/>
				<Vertex lat="59.97106678783890" lon="11.02694749832150"/>
				<Vertex lat="59.97105740010740" lon="11.02679237723350"/>
				<Vertex lat="59.97107248753310" lon="11.02671459317210"/>
				<Vertex lat="59.97105002403260" lon="11.02663323283200"/>
				<Vertex lat="59.97103527188300" lon="11.02664396166800"/>
				<Vertex lat="59.97103359550240" lon="11.02682545781140"/>
				<Vertex lat="59.97103728353980" lon="11.02692559361460"/>
				<Vertex lat="59.97093703597780" lon="11.02698817849160"/>
				<Vertex lat="59.97082605957980" lon="11.02746203541760"/>
				<Vertex lat="59.97077777981760" lon="11.02792471647260"/>
				<Vertex lat="59.97071307152510" lon="11.02840974926950"/>
				<Vertex lat="59.97076772153380" lon="11.02849826216700"/>
				<Vertex lat="59.97097492218020" lon="11.02856665849690"/>
				<Vertex lat="59.97213799506430" lon="11.03005841374400"/>
				<Vertex lat="59.97217688709500" lon="11.03031724691390"/>
				<Vertex lat="59.96951043605800" lon="11.03857308626170"/>
				<Vertex lat="59.96545761823650" lon="11.05123803019520"/>
				<Vertex lat="59.96536374092100" lon="11.05143785476680"/>
				<Vertex lat="59.96525477617980" lon="11.05159074068070"/>
				<Vertex lat="59.96503919363020" lon="11.05165153741840"/>
				<Vertex lat="59.96573857963090" lon="11.05190008878710"/>
				<Vertex lat="59.96568795293570" lon="11.05176284909250"/>
				<Vertex lat="59.96567890048030" lon="11.05166316032410"/>
				<Vertex lat="59.96570840477940" lon="11.05143740773200"/>
				<Vertex lat="59.96716216206550" lon="11.04701578617100"/>
				<Vertex lat="59.96723994612690" lon="11.04674577713010"/>
				<Vertex lat="59.96762149035930" lon="11.04553207755090"/>
				<Vertex lat="59.96782533824440" lon="11.04491740465160"/>
				<Vertex lat="59.97014746069910" lon="11.03772014379500"/>
				<Vertex lat="59.97031778097150" lon="11.03718370199200"/>
				<Vertex lat="59.97241426259280" lon="11.03068158030510"/>
				<Vertex lat="59.97254502028230" lon="11.03026896715160"/>
				<Vertex lat="59.97267544269560" lon="11.02985590696330"/>
				<Vertex lat="59.97395686805250" lon="11.02584421634670"/>
			</Apron>
			<Apron groupIndex="36" surface="{85D02B2B-08A1-452E-AB07-6D5AE7F52884}" drawSurface="TRUE" drawDetail="TRUE" localUV="FALSE" stretchUV="FALSE" priority="0" tiling="25.000000" heading="0.000000" falloff="0.000000" opacity="255" groundMerging="FALSE" excludeVegetationAround="TRUE" excludeVegetationInside="TRUE" isRectangle="FALSE">
				<Coloration red="113" green="103" blue="103" alpha="255" override="TRUE"/>
				<Vertex lat="59.97215372512569" lon="11.03010006007137"/>
				<Vertex lat="59.97031900896358" lon="11.02960806811942"/>
				<Vertex lat="59.97017435553496" lon="11.02958392131868"/>
				<Vertex lat="59.97006130850292" lon="11.02956004882438"/>
				<Vertex lat="59.96993476390054" lon="11.02951679301743"/>
				<Vertex lat="59.96995705697986" lon="11.02905440359625"/>
				<Vertex lat="59.97011039325967" lon="11.02895471256356"/>
				<Vertex lat="59.97012179507865" lon="11.02823858090271"/>
				<Vertex lat="59.97029591280659" lon="11.02824911213169"/>
				<Vertex lat="59.97039591568132" lon="11.02848787122329"/>
				<Vertex lat="59.97039300451113" lon="11.02860470888686"/>
				<Vertex lat="59.97034546275613" lon="11.02861026023339"/>
				<Vertex lat="59.97030914010668" lon="11.02932943829749"/>
				<Vertex lat="59.97031422716984" lon="11.02938352959345"/>
				<Vertex lat="59.97032876328723" lon="11.02941982110921"/>
				<Vertex lat="59.97034847879145" lon="11.02944957554623"/>
				<Vertex lat="59.97041315176078" lon="11.02950541783135"/>
				<Vertex lat="59.97089709604805" lon="11.02965198997778"/>
				<Vertex lat="59.97091521657521" lon="11.02963154331619"/>
				<Vertex lat="59.97092701311101" lon="11.02959916023535"/>
				<Vertex lat="59.97093774867205" lon="11.02955788240640"/>
				<Vertex lat="59.97094578288274" lon="11.02950621943683"/>
				<Vertex lat="59.97085841919832" lon="11.02850165913488"/>
				<Vertex lat="59.97091714357514" lon="11.02852917998276"/>
				<Vertex lat="59.97099615621367" lon="11.02956128972711"/>
				<Vertex lat="59.97101000261110" lon="11.02960799683957"/>
				<Vertex lat="59.97102646296285" lon="11.02964738833297"/>
				<Vertex lat="59.97104388936204" lon="11.02967781014982"/>
				<Vertex lat="59.97109428963974" lon="11.02971743048376"/>
				<Vertex lat="59.97211035901621" lon="11.02998013818494"/>
			</Apron>
			<Apron groupIndex="178" surface="{37AF92FE-A9CA-4A6A-AA94-5EDAA61AEC86}" drawSurface="TRUE" drawDetail="TRUE" localUV="FALSE" stretchUV="FALSE" priority="0" tiling="25.000000" heading="0.000000" falloff="0.000000" opacity="255" groundMerging="FALSE" excludeVegetationAround="TRUE" excludeVegetationInside="TRUE" isRectangle="FALSE">
				<Coloration red="113" green="103" blue="103" alpha="255" override="TRUE"/>
				<Vertex lat="59.97030277464562" lon="11.03717424487908"/>
				<Vertex lat="59.97013310193922" lon="11.03770563488200"/>
				<Vertex lat="59.97016990796942" lon="11.03768168168329"/>
				<Vertex lat="59.97023335644123" lon="11.03767204337174"/>
				<Vertex lat="59.97027296826685" lon="11.03768329604139"/>
				<Vertex lat="59.97033788719974" lon="11.03774050009060"/>
				<Vertex lat="59.97065794924161" lon="11.03815346923850"/>
				<Vertex lat="59.97068788577486" lon="11.03819556961230"/>
				<Vertex lat="59.97071446666145" lon="11.03826163203350"/>
				<Vertex lat="59.97072714752401" lon="11.03833654021977"/>
				<Vertex lat="59.97073150308234" lon="11.03842299400710"/>
				<Vertex lat="59.97072458035895" lon="11.03872296211229"/>
				<Vertex lat="59.97073496131129" lon="11.03877979315110"/>
				<Vertex lat="59.97084367652685" lon="11.03890393540387"/>
				<Vertex lat="59.97106369389192" lon="11.03917321857387"/>
				<Vertex lat="59.97116588553351" lon="11.03878431885382"/>
				<Vertex lat="59.97118074604393" lon="11.03876522336396"/>
				<Vertex lat="59.97119952327798" lon="11.03875855647523"/>
				<Vertex lat="59.97134918739319" lon="11.03892380009379"/>
				<Vertex lat="59.97138748069162" lon="11.03878304651673"/>
				<Vertex lat="59.97071014649219" lon="11.03792576377264"/>
				<Vertex lat="59.97037132558393" lon="11.03748048601654"/>
				<Vertex lat="59.97033595451536" lon="11.03743045323577"/>
				<Vertex lat="59.97031786535994" lon="11.03738488242041"/>
				<Vertex lat="59.97030504084704" lon="11.03731040696332"/>
			</Apron>
			<Apron groupIndex="176" surface="{B008C78F-E00D-4776-9AFB-3842E7C0D02F}" drawSurface="TRUE" drawDetail="TRUE" localUV="FALSE" stretchUV="FALSE" priority="0" tiling="25.000000" heading="0.000000" falloff="-1.000000" opacity="255" groundMerging="TRUE" excludeVegetationAround="TRUE" excludeVegetationInside="TRUE" isRectangle="FALSE">
				<Coloration red="92" green="92" blue="92" alpha="255" override="TRUE"/>
				<Vertex lat="59.97076202183960" lon="11.04261025786400"/>
				<Vertex lat="59.97073184698820" lon="11.04270279407500"/>
				<Vertex lat="59.97076671570540" lon="11.04282170534130"/>
				<Vertex lat="59.97077409178020" lon="11.04278951883320"/>
				<Vertex lat="59.97080493718390" lon="11.04264691472050"/>
			</Apron>
			<Apron groupIndex="16" surface="{043E13A1-758B-43C9-B4D2-EEB33E597935}" drawSurface="TRUE" drawDetail="TRUE" localUV="FALSE" stretchUV="FALSE" priority="0" tiling="25.000000" heading="0.000000" falloff="10.000000" opacity="255" groundMerging="FALSE" excludeVegetationAround="TRUE" excludeVegetationInside="TRUE" isRectangle="FALSE">
				<Coloration red="35" green="72" blue="49" alpha="255" override="TRUE"/>
				<Vertex lat="59.97084864671828" lon="11.03132688827673"/>
				<Vertex lat="59.97076782288948" lon="11.03126039697070"/>
				<Vertex lat="59.97075211735526" lon="11.03118165043192"/>
				<Vertex lat="59.97077706932436" lon="11.03108504441239"/>
				<Vertex lat="59.97083631867276" lon="11.03105195946521"/>
				<Vertex lat="59.97089659554935" lon="11.03112025067972"/>
			</Apron>
			<Apron groupIndex="38" surface="{85D02B2B-08A1-452E-AB07-6D5AE7F52884}" drawSurface="TRUE" drawDetail="TRUE" localUV="FALSE" stretchUV="FALSE" priority="0" tiling="25.000000" heading="0.000000" falloff="0.000000" opacity="255" groundMerging="FALSE" excludeVegetationAround="TRUE" excludeVegetationInside="TRUE" isRectangle="FALSE">
				<Coloration red="113" green="103" blue="103" alpha="255" override="TRUE"/>
				<Vertex lat="59.97127030112497" lon="11.03923082636432"/>
				<Vertex lat="59.97093342579043" lon="11.04054954152944"/>
				<Vertex lat="59.97082891403487" lon="11.04088365246417"/>
				<Vertex lat="59.97041239296631" lon="11.04212093600750"/>
				<Vertex lat="59.96994389375373" lon="11.04345530134254"/>
				<Vertex lat="59.97020711907994" lon="11.04362509047165"/>
				<Vertex lat="59.97041275332790" lon="11.04286485702027"/>
				<Vertex lat="59.97047413482845" lon="11.04292957854342"/>
				<Vertex lat="59.97030984674945" lon="11.04352601250656"/>
				<Vertex lat="59.97025203994286" lon="11.04346240996726"/>
				<Vertex lat="59.97020444981524" lon="11.04362019631969"/>
				<Vertex lat="59.97025940306288" lon="11.04368811812870"/>
				<Vertex lat="59.97001312365717" lon="11.04465642232921"/>
				<Vertex lat="59.97005415098754" lon="11.04473708509404"/>
				<Vertex lat="59.97005809693837" lon="11.04477352300278"/>
				<Vertex lat="59.97005161365591" lon="11.04484986324834"/>
				<Vertex lat="59.96994881201727" lon="11.04517430998956"/>
				<Vertex lat="59.97062688425186" lon="11.04597970001141"/>
				<Vertex lat="59.97073314360724" lon="11.04562231352048"/>
				<Vertex lat="59.97090490193728" lon="11.04580510063811"/>
				<Vertex lat="59.97098664080561" lon="11.04553783192193"/>
				<Vertex lat="59.97081702503038" lon="11.04532543323324"/>
				<Vertex lat="59.97115951186962" lon="11.04364523206120"/>
				<Vertex lat="59.97118626176051" lon="11.04354760984959"/>
				<Vertex lat="59.97121749117194" lon="11.04345114860044"/>
				<Vertex lat="59.97123182993423" lon="11.04344170247827"/>
				<Vertex lat="59.97150358187547" lon="11.04373624541646"/>
				<Vertex lat="59.97152457433334" lon="11.04377398075260"/>
				<Vertex lat="59.97154462561477" lon="11.04385245731095"/>
				<Vertex lat="59.97161161171578" lon="11.04362364326520"/>
				<Vertex lat="59.97157077056317" lon="11.04364570517390"/>
				<Vertex lat="59.97152019259786" lon="11.04360996627749"/>
				<Vertex lat="59.97126490923595" lon="11.04334115128955"/>
				<Vertex lat="59.97133466725122" lon="11.04309277481545"/>
				<Vertex lat="59.97128464814028" lon="11.04303965174100"/>
				<Vertex lat="59.97122141800524" lon="11.04323195455280"/>
				<Vertex lat="59.97120950621208" lon="11.04325657630382"/>
				<Vertex lat="59.97119138268279" lon="11.04326637885238"/>
				<Vertex lat="59.97076778530224" lon="11.04282741419743"/>
				<Vertex lat="59.97085891933406" lon="11.04247249723483"/>
				<Vertex lat="59.97065691036238" lon="11.04224520842854"/>
				<Vertex lat="59.97055717894226" lon="11.04259194665732"/>
				<Vertex lat="59.97052310262328" lon="11.04253667390606"/>
				<Vertex lat="59.97049248223665" lon="11.04247023669013"/>
				<Vertex lat="59.97047355523098" lon="11.04239101977684"/>
				<Vertex lat="59.97046949760538" lon="11.04232857420510"/>
				<Vertex lat="59.97046588173767" lon="11.04223988854591"/>
				<Vertex lat="59.97047704484719" lon="11.04215174689504"/>
				<Vertex lat="59.97070153609068" lon="11.04146558715307"/>
				<Vertex lat="59.97072049600995" lon="11.04145116707790"/>
				<Vertex lat="59.97073476173225" lon="11.04143815427401"/>
				<Vertex lat="59.97074986236117" lon="11.04144175197445"/>
				<Vertex lat="59.97077130908594" lon="11.04144880534512"/>
				<Vertex lat="59.97091339048765" lon="11.04165445810461"/>
				<Vertex lat="59.97098852217326" lon="11.04135370042807"/>
				<Vertex lat="59.97085197807240" lon="11.04114079889026"/>
				<Vertex lat="59.97084094608180" lon="11.04111218139692"/>
				<Vertex lat="59.97083644758757" lon="11.04107982151062"/>
				<Vertex lat="59.97083986667365" lon="11.04104354494825"/>
				<Vertex lat="59.97095555334959" lon="11.04072083437630"/>
				<Vertex lat="59.97097517262408" lon="11.04069978032240"/>
				<Vertex lat="59.97100591856901" lon="11.04068077342829"/>
				<Vertex lat="59.97103162584524" lon="11.04067710428185"/>
				<Vertex lat="59.97106666903136" lon="11.04070070899559"/>
				<Vertex lat="59.97113217324618" lon="11.04075839711842"/>
				<Vertex lat="59.97116484353214" lon="11.04064042811285"/>
				<Vertex lat="59.97113444337784" lon="11.04059409494068"/>
				<Vertex lat="59.97110609921440" lon="11.04053882027403"/>
				<Vertex lat="59.97108943312653" lon="11.04048783716824"/>
				<Vertex lat="59.97108202001732" lon="11.04042314364016"/>
				<Vertex lat="59.97107829438549" lon="11.04035798474106"/>
				<Vertex lat="59.97107840006792" lon="11.04027648139315"/>
				<Vertex lat="59.97133091652515" lon="11.03928423779549"/>
			</Apron>
			<Apron groupIndex="156" surface="{63F42C85-7DE8-44C6-B98C-E9BFB72C7B24}" drawSurface="TRUE" drawDetail="TRUE" localUV="FALSE" stretchUV="FALSE" priority="0" tiling="25.000000" heading="0.000000" falloff="-1.000000" opacity="255" groundMerging="TRUE" excludeVegetationAround="TRUE" excludeVegetationInside="TRUE" isRectangle="FALSE">
				<Coloration red="68" green="83" blue="83" alpha="255" override="TRUE"/>
				<Vertex lat="59.97076671570540" lon="11.04282170534130"/>
				<Vertex lat="59.97091457247730" lon="11.04297906160350"/>
				<Vertex lat="59.97092027217150" lon="11.04294687509540"/>
				<Vertex lat="59.97077409178020" lon="11.04278951883320"/>
			</Apron>
			<Apron groupIndex="155" surface="{63F42C85-7DE8-44C6-B98C-E9BFB72C7B24}" drawSurface="TRUE" drawDetail="TRUE" localUV="FALSE" stretchUV="FALSE" priority="0" tiling="25.000000" heading="0.000000" falloff="-1.000000" opacity="255" groundMerging="TRUE" excludeVegetationAround="TRUE" excludeVegetationInside="TRUE" isRectangle="FALSE">
				<Coloration red="62" green="79" blue="69" alpha="255" override="TRUE"/>
				<Vertex lat="59.97095916420220" lon="11.04274481534960"/>
				<Vertex lat="59.97089546173810" lon="11.04267373681070"/>
				<Vertex lat="59.97089546173810" lon="11.04266837239270"/>
				<Vertex lat="59.97089512646200" lon="11.04265317320820"/>
				<Vertex lat="59.97089479118590" lon="11.04263216257100"/>
				<Vertex lat="59.97089512646200" lon="11.04260802268980"/>
				<Vertex lat="59.97089646756650" lon="11.04258432984350"/>
				<Vertex lat="59.97089948505160" lon="11.04256376624110"/>
				<Vertex lat="59.97090417891740" lon="11.04254543781280"/>
				<Vertex lat="59.97091155499220" lon="11.04252487421040"/>
				<Vertex lat="59.97091993689540" lon="11.04250431060790"/>
				<Vertex lat="59.97092764824630" lon="11.04248642921450"/>
				<Vertex lat="59.97093334794040" lon="11.04247391223910"/>
				<Vertex lat="59.97093535959720" lon="11.04246944189070"/>
				<Vertex lat="59.97097257524730" lon="11.04234516620640"/>
				<Vertex lat="59.97089244425300" lon="11.04224145412450"/>
				<Vertex lat="59.97077543288470" lon="11.04226201772690"/>
				<Vertex lat="59.97075766325000" lon="11.04234516620640"/>
				<Vertex lat="59.97085087001320" lon="11.04245781898500"/>
				<Vertex lat="59.97080493718390" lon="11.04264691472050"/>
				<Vertex lat="59.97093703597780" lon="11.04284539818760"/>
			</Apron>
			<Apron groupIndex="157" surface="{63F42C85-7DE8-44C6-B98C-E9BFB72C7B24}" drawSurface="TRUE" drawDetail="TRUE" localUV="FALSE" stretchUV="FALSE" priority="0" tiling="25.000000" heading="0.000000" falloff="-1.000000" opacity="255" groundMerging="TRUE" excludeVegetationAround="TRUE" excludeVegetationInside="TRUE" isRectangle="FALSE">
				<Coloration red="41" green="62" blue="38" alpha="255" override="TRUE"/>
				<Vertex lat="59.97112110257150" lon="11.04155346751210"/>
				<Vertex lat="59.97107818722720" lon="11.04150384664540"/>
				<Vertex lat="59.97099168598650" lon="11.04180917143820"/>
				<Vertex lat="59.97101783752440" lon="11.04181632399560"/>
				<Vertex lat="59.97107349336150" lon="11.04178547859190"/>
			</Apron>
			<Apron groupIndex="154" surface="{63F42C85-7DE8-44C6-B98C-E9BFB72C7B24}" drawSurface="TRUE" drawDetail="TRUE" localUV="FALSE" stretchUV="FALSE" priority="0" tiling="25.000000" heading="0.000000" falloff="-1.000000" opacity="255" groundMerging="TRUE" excludeVegetationAround="TRUE" excludeVegetationInside="TRUE" isRectangle="FALSE">
				<Coloration red="56" green="85" blue="85" alpha="255" override="TRUE"/>
				<Vertex lat="59.97113350778820" lon="11.04589462280270"/>
				<Vertex lat="59.97114390134810" lon="11.04584723711010"/>
				<Vertex lat="59.97102990746500" lon="11.04571402072910"/>
				<Vertex lat="59.97102823108430" lon="11.04585617780690"/>
				<Vertex lat="59.97107148170470" lon="11.04591250419620"/>
			</Apron>
			<Apron groupIndex="158" surface="{63F42C85-7DE8-44C6-B98C-E9BFB72C7B24}" drawSurface="TRUE" drawDetail="TRUE" localUV="FALSE" stretchUV="FALSE" priority="0" tiling="25.000000" heading="0.000000" falloff="-1.000000" opacity="255" groundMerging="TRUE" excludeVegetationAround="TRUE" excludeVegetationInside="TRUE" isRectangle="FALSE">
				<Coloration red="68" green="80" blue="78" alpha="255" override="TRUE"/>
				<Vertex lat="59.97122906148430" lon="11.04131564497950"/>
				<Vertex lat="59.97125789523120" lon="11.04117482900620"/>
				<Vertex lat="59.97107315808530" lon="11.04098618030550"/>
				<Vertex lat="59.97105270624160" lon="11.04101747274400"/>
				<Vertex lat="59.97122772037980" lon="11.04118064045910"/>
				<Vertex lat="59.97120324522260" lon="11.04133129119870"/>
				<Vertex lat="59.97121263295410" lon="11.04133844375610"/>
				<Vertex lat="59.97122302651410" lon="11.04133665561680"/>
			</Apron>
			<Apron groupIndex="161" surface="{63F42C85-7DE8-44C6-B98C-E9BFB72C7B24}" drawSurface="TRUE" drawDetail="TRUE" localUV="FALSE" stretchUV="FALSE" priority="0" tiling="25.000000" heading="0.000000" falloff="-1.000000" opacity="255" groundMerging="TRUE" excludeVegetationAround="TRUE" excludeVegetationInside="TRUE" isRectangle="FALSE">
				<Vertex lat="59.97117709368470" lon="11.04059636592860"/>
				<Vertex lat="59.97122671455140" lon="11.04041397571560"/>
				<Vertex lat="59.97120190411810" lon="11.04041397571560"/>
				<Vertex lat="59.97116167098280" lon="11.04055881500240"/>
			</Apron>
			<Apron groupIndex="170" surface="{63F42C85-7DE8-44C6-B98C-E9BFB72C7B24}" drawSurface="TRUE" drawDetail="TRUE" localUV="FALSE" stretchUV="FALSE" priority="0" tiling="25.000000" heading="0.000000" falloff="5.000000" opacity="255" groundMerging="FALSE" excludeVegetationAround="TRUE" excludeVegetationInside="TRUE" isRectangle="FALSE">
				<Coloration red="35" green="75" blue="44" alpha="255" override="TRUE"/>
				<Vertex lat="59.97115999460220" lon="11.03887438774110"/>
				<Vertex lat="59.97119888663290" lon="11.03894859552380"/>
				<Vertex lat="59.97124146670100" lon="11.03885605931280"/>
				<Vertex lat="59.97118614614010" lon="11.03880777955060"/>
			</Apron>
			<Apron groupIndex="162" surface="{63F42C85-7DE8-44C6-B98C-E9BFB72C7B24}" drawSurface="TRUE" drawDetail="TRUE" localUV="FALSE" stretchUV="FALSE" priority="0" tiling="25.000000" heading="0.000000" falloff="-1.000000" opacity="255" groundMerging="TRUE" excludeVegetationAround="TRUE" excludeVegetationInside="TRUE" isRectangle="FALSE">
				<Vertex lat="59.97126828879120" lon="11.04022935032840"/>
				<Vertex lat="59.97129913419490" lon="11.04010149836540"/>
				<Vertex lat="59.97127063572410" lon="11.04010149836540"/>
				<Vertex lat="59.97125655412670" lon="11.04018688201900"/>
			</Apron>
			<Apron groupIndex="160" surface="{63F42C85-7DE8-44C6-B98C-E9BFB72C7B24}" drawSurface="TRUE" drawDetail="TRUE" localUV="FALSE" stretchUV="FALSE" priority="0" tiling="25.000000" heading="0.000000" falloff="-1.000000" opacity="255" groundMerging="TRUE" excludeVegetationAround="TRUE" excludeVegetationInside="TRUE" isRectangle="FALSE">
				<Vertex lat="59.97143190354110" lon="11.03941708803180"/>
				<Vertex lat="59.97138194739820" lon="11.03935316205020"/>
				<Vertex lat="59.97133232653140" lon="11.03955209255220"/>
				<Vertex lat="59.97138664126400" lon="11.03960439562800"/>
			</Apron>
			<Apron groupIndex="163" surface="{63F42C85-7DE8-44C6-B98C-E9BFB72C7B24}" drawSurface="TRUE" drawDetail="TRUE" localUV="FALSE" stretchUV="FALSE" priority="0" tiling="25.000000" heading="0.000000" falloff="-1.000000" opacity="255" groundMerging="TRUE" excludeVegetationAround="TRUE" excludeVegetationInside="TRUE" isRectangle="FALSE">
				<Coloration red="73" green="88" blue="90" alpha="255" override="TRUE"/>
				<Vertex lat="59.97163206338880" lon="11.03831604123120"/>
				<Vertex lat="59.97160457074640" lon="11.03835046291350"/>
				<Vertex lat="59.97155327349900" lon="11.03855118155480"/>
				<Vertex lat="59.97157406061890" lon="11.03853598237040"/>
				<Vertex lat="59.97162234038110" lon="11.03838041424750"/>
			</Apron>
			<Apron groupIndex="164" surface="{63F42C85-7DE8-44C6-B98C-E9BFB72C7B24}" drawSurface="TRUE" drawDetail="TRUE" localUV="FALSE" stretchUV="FALSE" priority="0" tiling="25.000000" heading="0.000000" falloff="-1.000000" opacity="255" groundMerging="TRUE" excludeVegetationAround="TRUE" excludeVegetationInside="TRUE" isRectangle="FALSE">
				<Coloration red="49" green="72" blue="54" alpha="255" override="TRUE"/>
				<Vertex lat="59.97174672782420" lon="11.03785023093220"/>
				<Vertex lat="59.97165855020280" lon="11.03817209601400"/>
				<Vertex lat="59.97168503701690" lon="11.03815510869030"/>
				<Vertex lat="59.97175812721250" lon="11.03788599371910"/>
			</Apron>
			<Apron groupIndex="39" surface="{85D02B2B-08A1-452E-AB07-6D5AE7F52884}" drawSurface="TRUE" drawDetail="TRUE" localUV="FALSE" stretchUV="FALSE" priority="0" tiling="25.000000" heading="0.000000" falloff="0.000000" opacity="255" groundMerging="FALSE" excludeVegetationAround="TRUE" excludeVegetationInside="TRUE" isRectangle="FALSE">
				<Coloration red="113" green="103" blue="103" alpha="255" override="TRUE"/>
				<Vertex lat="59.97231835159879" lon="11.03825851347743"/>
				<Vertex lat="59.97229270073598" lon="11.03835482308655"/>
				<Vertex lat="59.97272787718000" lon="11.03885336080217"/>
				<Vertex lat="59.97275044120375" lon="11.03878024550032"/>
				<Vertex lat="59.97275424057060" lon="11.03879009356211"/>
				<Vertex lat="59.97275795203485" lon="11.03880824216189"/>
				<Vertex lat="59.97276105160329" lon="11.03882923699877"/>
				<Vertex lat="59.97276078238577" lon="11.03886584843295"/>
				<Vertex lat="59.97275682612934" lon="11.03890776960180"/>
				<Vertex lat="59.97274766829351" lon="11.03898558284144"/>
				<Vertex lat="59.97267030465127" lon="11.03924554295357"/>
				<Vertex lat="59.97265682385614" lon="11.03926084791195"/>
				<Vertex lat="59.97264243672373" lon="11.03925686754196"/>
				<Vertex lat="59.97242399639530" lon="11.03902400290348"/>
				<Vertex lat="59.97239500929577" lon="11.03913524453098"/>
				<Vertex lat="59.97235905883768" lon="11.03910819612932"/>
				<Vertex lat="59.97229673203388" lon="11.03933218550680"/>
				<Vertex lat="59.97254280735197" lon="11.03961248495791"/>
				<Vertex lat="59.97254767004797" lon="11.03962519891745"/>
				<Vertex lat="59.97254927432045" lon="11.03964517178389"/>
				<Vertex lat="59.97254611166134" lon="11.03966766466711"/>
				<Vertex lat="59.97215647193671" lon="11.04106850264529"/>
				<Vertex lat="59.97214826397743" lon="11.04108318459013"/>
				<Vertex lat="59.97213036854455" lon="11.04108448067331"/>
				<Vertex lat="59.97209333146313" lon="11.04104050308261"/>
				<Vertex lat="59.97200170845809" lon="11.04142330552468"/>
				<Vertex lat="59.97199123640135" lon="11.04146155031524"/>
				<Vertex lat="59.97198269255460" lon="11.04147406916006"/>
				<Vertex lat="59.97196856332519" lon="11.04148161203705"/>
				<Vertex lat="59.97193274363087" lon="11.04146647260324"/>
				<Vertex lat="59.97168379781339" lon="11.04121840419223"/>
				<Vertex lat="59.97123565570173" lon="11.04076398188230"/>
				<Vertex lat="59.97126374232015" lon="11.04066429749237"/>
				<Vertex lat="59.97117925033603" lon="11.04058672601003"/>
				<Vertex lat="59.97113005681164" lon="11.04075808560688"/>
				<Vertex lat="59.97129601355098" lon="11.04093408596509"/>
				<Vertex lat="59.97130758582306" lon="11.04094940623226"/>
				<Vertex lat="59.97131062695258" lon="11.04096213867830"/>
				<Vertex lat="59.97131028986350" lon="11.04097520376481"/>
				<Vertex lat="59.97130687465366" lon="11.04098718647491"/>
				<Vertex lat="59.97123233692265" lon="11.04128635622491"/>
				<Vertex lat="59.97122542531485" lon="11.04130686680160"/>
				<Vertex lat="59.97121588856147" lon="11.04131658965818"/>
				<Vertex lat="59.97120570733847" lon="11.04131398712074"/>
				<Vertex lat="59.97119468945569" lon="11.04125059987914"/>
				<Vertex lat="59.97111295306076" lon="11.04156029166796"/>
				<Vertex lat="59.97118429898515" lon="11.04161995422045"/>
				<Vertex lat="59.97133990195456" lon="11.04103007584317"/>
				<Vertex lat="59.97134783745035" lon="11.04100870899335"/>
				<Vertex lat="59.97135714081012" lon="11.04100027327136"/>
				<Vertex lat="59.97137051498301" lon="11.04100382174209"/>
				<Vertex lat="59.97138937911289" lon="11.04102063178764"/>
				<Vertex lat="59.97167787927042" lon="11.04135431556738"/>
				<Vertex lat="59.97168107582009" lon="11.04137932124061"/>
				<Vertex lat="59.97168468206043" lon="11.04140641336729"/>
				<Vertex lat="59.97168108919806" lon="11.04143899364572"/>
				<Vertex lat="59.97166515033940" lon="11.04149286786502"/>
				<Vertex lat="59.97164654437486" lon="11.04153918317382"/>
				<Vertex lat="59.97163843072037" lon="11.04154890069766"/>
				<Vertex lat="59.97162662696206" lon="11.04156378930347"/>
				<Vertex lat="59.97160970905909" lon="11.04157060183703"/>
				<Vertex lat="59.97159864467235" lon="11.04158612623082"/>
				<Vertex lat="59.97158061563508" lon="11.04162596311955"/>
				<Vertex lat="59.97156557597754" lon="11.04164804075710"/>
				<Vertex lat="59.97155332668672" lon="11.04164536226475"/>
				<Vertex lat="59.97152125810099" lon="11.04161602953634"/>
				<Vertex lat="59.97131984040595" lon="11.04138125995055"/>
				<Vertex lat="59.97131396010644" lon="11.04137758234704"/>
				<Vertex lat="59.97130447677183" lon="11.04137902097592"/>
				<Vertex lat="59.97129835571258" lon="11.04139193787358"/>
				<Vertex lat="59.97102467803550" lon="11.04231435815298"/>
				<Vertex lat="59.97098029133543" lon="11.04235766257042"/>
				<Vertex lat="59.97087552689465" lon="11.04264052226866"/>
				<Vertex lat="59.97099262636265" lon="11.04274334494507"/>
				<Vertex lat="59.97126552595356" lon="11.04303038032080"/>
				<Vertex lat="59.97152103203930" lon="11.04328910687246"/>
				<Vertex lat="59.97156134493913" lon="11.04323790389791"/>
				<Vertex lat="59.97158364783431" lon="11.04316315852414"/>
				<Vertex lat="59.97159481484909" lon="11.04313182580111"/>
				<Vertex lat="59.97160015292533" lon="11.04294540654645"/>
				<Vertex lat="59.97171164630804" lon="11.04213666430334"/>
				<Vertex lat="59.97170181517689" lon="11.04212517940667"/>
				<Vertex lat="59.97173004170403" lon="11.04201469387175"/>
				<Vertex lat="59.97174124539946" lon="11.04202751266382"/>
				<Vertex lat="59.97175830078822" lon="11.04196877170638"/>
				<Vertex lat="59.97167795370628" lon="11.04185720225789"/>
				<Vertex lat="59.97166827137281" lon="11.04183385871482"/>
				<Vertex lat="59.97167071049110" lon="11.04181053067794"/>
				<Vertex lat="59.97167593963773" lon="11.04177432184035"/>
				<Vertex lat="59.97172267804089" lon="11.04153787314281"/>
				<Vertex lat="59.97174878077675" lon="11.04145306784105"/>
				<Vertex lat="59.97176729496135" lon="11.04143951970606"/>
				<Vertex lat="59.97178169083569" lon="11.04144113061837"/>
				<Vertex lat="59.97180287322696" lon="11.04145163428068"/>
				<Vertex lat="59.97210770334152" lon="11.04180605834371"/>
				<Vertex lat="59.97216774483181" lon="11.04158773863452"/>
				<Vertex lat="59.97213810106243" lon="11.04154659994105"/>
				<Vertex lat="59.97220480374806" lon="11.04129992838360"/>
				<Vertex lat="59.97217223367318" lon="11.04123961694971"/>
				<Vertex lat="59.97258251457718" lon="11.03978057340388"/>
				<Vertex lat="59.97258850241941" lon="11.03976886565121"/>
				<Vertex lat="59.97260339787595" lon="11.03977201299216"/>
				<Vertex lat="59.97263014862268" lon="11.03979265953149"/>
				<Vertex lat="59.97283747396532" lon="11.03900975927236"/>
				<Vertex lat="59.97284855835216" lon="11.03899879297980"/>
				<Vertex lat="59.97286360233137" lon="11.03897756303014"/>
				<Vertex lat="59.97291621533768" lon="11.03880262670916"/>
				<Vertex lat="59.97281773710495" lon="11.03867932788910"/>
				<Vertex lat="59.97264894435084" lon="11.03849264746350"/>
				<Vertex lat="59.97257802300165" lon="11.03841334974100"/>
				<Vertex lat="59.97251927523170" lon="11.03831940018028"/>
				<Vertex lat="59.97248524592507" lon="11.03825620995358"/>
				<Vertex lat="59.97246677270402" lon="11.03821435077507"/>
				<Vertex lat="59.97245166648712" lon="11.03816871898488"/>
			</Apron>
			<Apron groupIndex="159" surface="{63F42C85-7DE8-44C6-B98C-E9BFB72C7B24}" drawSurface="TRUE" drawDetail="TRUE" localUV="FALSE" stretchUV="FALSE" priority="0" tiling="25.000000" heading="0.000000" falloff="-1.000000" opacity="255" groundMerging="TRUE" excludeVegetationAround="TRUE" excludeVegetationInside="TRUE" isRectangle="FALSE">
				<Coloration red="36" green="53" blue="39" alpha="255" override="TRUE"/>
				<Vertex lat="59.97202366590500" lon="11.04175373911860"/>
				<Vertex lat="59.97196935117240" lon="11.04169651865960"/>
				<Vertex lat="59.97194755822420" lon="11.04181230068210"/>
				<Vertex lat="59.97199416160580" lon="11.04186549782750"/>
			</Apron>
			<Apron groupIndex="165" surface="{63F42C85-7DE8-44C6-B98C-E9BFB72C7B24}" drawSurface="TRUE" drawDetail="TRUE" localUV="FALSE" stretchUV="FALSE" priority="0" tiling="25.000000" heading="0.000000" falloff="-1.000000" opacity="255" groundMerging="TRUE" excludeVegetationAround="TRUE" excludeVegetationInside="TRUE" isRectangle="FALSE">
				<Coloration red="69" green="93" blue="91" alpha="255" override="TRUE"/>
				<Vertex lat="59.97198041528460" lon="11.03771656751630"/>
				<Vertex lat="59.97195962816480" lon="11.03775456547740"/>
				<Vertex lat="59.97201561927800" lon="11.03782653808590"/>
				<Vertex lat="59.97199114412070" lon="11.03792712092400"/>
				<Vertex lat="59.97199784964320" lon="11.03792488574980"/>
				<Vertex lat="59.97201193124060" lon="11.03792130947110"/>
				<Vertex lat="59.97202634811400" lon="11.03791952133180"/>
				<Vertex lat="59.97203808277850" lon="11.03792130947110"/>
				<Vertex lat="59.97204512357710" lon="11.03792309761050"/>
				<Vertex lat="59.97205484658480" lon="11.03786811232570"/>
				<Vertex lat="59.97205384075640" lon="11.03776797652240"/>
			</Apron>
			<Apron groupIndex="166" surface="{63F42C85-7DE8-44C6-B98C-E9BFB72C7B24}" drawSurface="TRUE" drawDetail="TRUE" localUV="FALSE" stretchUV="FALSE" priority="0" tiling="25.000000" heading="0.000000" falloff="-1.000000" opacity="255" groundMerging="TRUE" excludeVegetationAround="TRUE" excludeVegetationInside="TRUE" isRectangle="FALSE">
				<Coloration red="43" green="74" blue="52" alpha="255" override="TRUE"/>
				<Vertex lat="59.97228484600780" lon="11.03716716170310"/>
				<Vertex lat="59.97204679995780" lon="11.03695616126060"/>
				<Vertex lat="59.97204177081580" lon="11.03695124387740"/>
				<Vertex lat="59.97203037142750" lon="11.03694140911100"/>
				<Vertex lat="59.97201830148700" lon="11.03693515062330"/>
				<Vertex lat="59.97200623154640" lon="11.03693515062330"/>
				<Vertex lat="59.97199583798650" lon="11.03693962097170"/>
				<Vertex lat="59.97198611497880" lon="11.03695973753930"/>
				<Vertex lat="59.97198142111300" lon="11.03698432445530"/>
				<Vertex lat="59.97198041528460" lon="11.03699639439580"/>
				<Vertex lat="59.97183088213210" lon="11.03756502270700"/>
				<Vertex lat="59.97185938060280" lon="11.03756994009020"/>
				<Vertex lat="59.97202333062890" lon="11.03699773550030"/>
				<Vertex lat="59.97227411717180" lon="11.03719800710680"/>
			</Apron>
			<Apron groupIndex="41" surface="{85D02B2B-08A1-452E-AB07-6D5AE7F52884}" drawSurface="TRUE" drawDetail="TRUE" localUV="FALSE" stretchUV="FALSE" priority="0" tiling="25.000000" heading="0.000000" falloff="0.000000" opacity="255" groundMerging="FALSE" excludeVegetationAround="TRUE" excludeVegetationInside="TRUE" isRectangle="FALSE">
				<Coloration red="113" green="103" blue="103" alpha="255" override="TRUE"/>
				<Vertex lat="59.97259263379816" lon="11.03639597869121"/>
				<Vertex lat="59.97257905706656" lon="11.03631841581552"/>
				<Vertex lat="59.97256127428543" lon="11.03627527766988"/>
				<Vertex lat="59.97253870200210" lon="11.03625830309384"/>
				<Vertex lat="59.97252454720174" lon="11.03634815650364"/>
				<Vertex lat="59.97224030838914" lon="11.03619249885179"/>
				<Vertex lat="59.97222459450688" lon="11.03619389815678"/>
				<Vertex lat="59.97223215359871" lon="11.03611611017019"/>
				<Vertex lat="59.97219866874779" lon="11.03611927380538"/>
				<Vertex lat="59.97216671853604" lon="11.03614408615591"/>
				<Vertex lat="59.97220924533420" lon="11.03622221309920"/>
				<Vertex lat="59.97218641167580" lon="11.03627095613750"/>
				<Vertex lat="59.97204135726547" lon="11.03674838255250"/>
				<Vertex lat="59.97221901188848" lon="11.03685031334254"/>
				<Vertex lat="59.97227135668815" lon="11.03658869210689"/>
				<Vertex lat="59.97236212836700" lon="11.03664002554982"/>
				<Vertex lat="59.97239443387637" lon="11.03646625428664"/>
				<Vertex lat="59.97243933145822" lon="11.03648076404080"/>
				<Vertex lat="59.97258035567838" lon="11.03632345926163"/>
				<Vertex lat="59.97258501010945" lon="11.03636046981738"/>
				<Vertex lat="59.97244796453205" lon="11.03650864096331"/>
				<Vertex lat="59.97247258374499" lon="11.03652078967431"/>
				<Vertex lat="59.97241768545372" lon="11.03677698613341"/>
				<Vertex lat="59.97229556163834" lon="11.03671570764812"/>
				<Vertex lat="59.97228206087318" lon="11.03688387113116"/>
				<Vertex lat="59.97239176896836" lon="11.03697111681444"/>
				<Vertex lat="59.97235047117425" lon="11.03723189875435"/>
				<Vertex lat="59.97232070022527" lon="11.03721219554403"/>
				<Vertex lat="59.97229891992019" lon="11.03736393533026"/>
				<Vertex lat="59.97230130786239" lon="11.03738690064689"/>
				<Vertex lat="59.97231280605587" lon="11.03739241604687"/>
				<Vertex lat="59.97242681790313" lon="11.03754859576395"/>
				<Vertex lat="59.97241829067136" lon="11.03759790313305"/>
				<Vertex lat="59.97229661701108" lon="11.03741835134248"/>
				<Vertex lat="59.97228791664618" lon="11.03740032190364"/>
				<Vertex lat="59.97228452655938" lon="11.03737230813358"/>
				<Vertex lat="59.97228517811642" lon="11.03733529219025"/>
				<Vertex lat="59.97230696362846" lon="11.03718103584095"/>
				<Vertex lat="59.97224279995905" lon="11.03712991874579"/>
				<Vertex lat="59.97221187081124" lon="11.03718636117181"/>
				<Vertex lat="59.97219281408844" lon="11.03719273141160"/>
				<Vertex lat="59.97216820038343" lon="11.03716726411723"/>
				<Vertex lat="59.97214691156642" lon="11.03712188459840"/>
				<Vertex lat="59.97210676129571" lon="11.03706855031921"/>
				<Vertex lat="59.97205158415998" lon="11.03703326724013"/>
				<Vertex lat="59.97202503328798" lon="11.03700413590997"/>
				<Vertex lat="59.97204486292634" lon="11.03694080705201"/>
				<Vertex lat="59.97201917454568" lon="11.03692693155536"/>
				<Vertex lat="59.97199158246361" lon="11.03695051816558"/>
				<Vertex lat="59.97201497630843" lon="11.03702225268985"/>
				<Vertex lat="59.97187048697206" lon="11.03755870898408"/>
				<Vertex lat="59.97187349101691" lon="11.03757796351233"/>
				<Vertex lat="59.97188319828847" lon="11.03758039792669"/>
				<Vertex lat="59.97202925512559" lon="11.03760449235467"/>
				<Vertex lat="59.97214736274191" lon="11.03769263320461"/>
				<Vertex lat="59.97225427346631" lon="11.03781897857992"/>
				<Vertex lat="59.97233720904655" lon="11.03792427791160"/>
				<Vertex lat="59.97237335243700" lon="11.03798809788040"/>
				<Vertex lat="59.97236161656296" lon="11.03812132362849"/>
				<Vertex lat="59.97235537219426" lon="11.03810092680756"/>
				<Vertex lat="59.97234989875006" lon="11.03807700073177"/>
				<Vertex lat="59.97232967277267" lon="11.03805255826562"/>
